[
  {
    "spot-id": 1,
    "region-id": null,
    "name": "Trolley's",
    "latitude": -43.50263962,
    "longitude": 172.7317661,
    "visible": false
  },
  {
    "spot-id": 2,
    "region-id": null,
    "name": "Los Botes",
    "latitude": -34.66241383,
    "longitude": -54.17576194,
    "visible": false
  },
  {
    "spot-id": 4,
    "region-id": null,
    "name": "El Burro",
    "latitude": 28.68703001,
    "longitude": -13.83000612,
    "visible": false
  },
  {
    "spot-id": 5,
    "region-id": null,
    "name": "Midigama Right",
    "latitude": 5.96357684,
    "longitude": 80.38374424,
    "visible": false
  },
  {
    "spot-id": 6,
    "region-id": null,
    "name": "outer",
    "latitude": -34.47795037,
    "longitude": 150.9159708,
    "visible": false
  },
  {
    "spot-id": 7,
    "region-id": null,
    "name": "Victoria bay",
    "latitude": -34.0078021,
    "longitude": 22.55002856,
    "visible": false
  },
  {
    "spot-id": 8,
    "region-id": null,
    "name": "La Ocho",
    "latitude": 18.46880221,
    "longitude": -66.09211922,
    "visible": false
  },
  {
    "spot-id": 9,
    "region-id": null,
    "name": "Voulisma",
    "latitude": 35.12519326,
    "longitude": 25.74311692,
    "visible": false
  },
  {
    "spot-id": 11,
    "region-id": null,
    "name": "Voelklip",
    "latitude": -34.41268082,
    "longitude": 19.2790103,
    "visible": false
  },
  {
    "spot-id": 12,
    "region-id": null,
    "name": "Nida",
    "latitude": 55.30701712,
    "longitude": 20.97666621,
    "visible": false
  },
  {
    "spot-id": 14,
    "region-id": null,
    "name": "Yzerfontein",
    "latitude": -33.34607061,
    "longitude": 18.14676404,
    "visible": false
  },
  {
    "spot-id": 15,
    "region-id": null,
    "name": "Boca del Abajo",
    "latitude": 29.120824,
    "longitude": -13.660126,
    "visible": false
  },
  {
    "spot-id": 16,
    "region-id": null,
    "name": "Praia do amado",
    "latitude": 37.16664353,
    "longitude": -8.90446186,
    "visible": false
  },
  {
    "spot-id": 17,
    "region-id": null,
    "name": "Arawahata Road ",
    "latitude": -39.41975118,
    "longitude": 173.80169392,
    "visible": false
  },
  {
    "spot-id": 20,
    "region-id": null,
    "name": "Deba",
    "latitude": 43.30369474,
    "longitude": -2.35313416,
    "visible": false
  },
  {
    "spot-id": 21,
    "region-id": null,
    "name": "La t\u00c3\u00a8ne",
    "latitude": 47.00035182,
    "longitude": 7.01632485,
    "visible": false
  },
  {
    "spot-id": 22,
    "region-id": null,
    "name": "Kingston",
    "latitude": -29.0594709,
    "longitude": 167.95576572,
    "visible": false
  },
  {
    "spot-id": 25,
    "region-id": null,
    "name": "The farm",
    "latitude": -34.60414183,
    "longitude": 150.86837769,
    "visible": false
  },
  {
    "spot-id": 26,
    "region-id": null,
    "name": "Cap de la Chevre",
    "latitude": 48.16894768,
    "longitude": -4.55638647,
    "visible": false
  },
  {
    "spot-id": 27,
    "region-id": null,
    "name": "Hunchies Hunchies bay",
    "latitude": -32.53411465,
    "longitude": 115.69004774,
    "visible": false
  },
  {
    "spot-id": 31,
    "region-id": 52,
    "name": "Sandspit",
    "latitude": 34.40496224,
    "longitude": -119.6882987,
    "visible": false
  },
  {
    "spot-id": 33,
    "region-id": null,
    "name": "Agia Fotia",
    "latitude": 35.19605901,
    "longitude": 26.15085393,
    "visible": false
  },
  {
    "spot-id": 34,
    "region-id": null,
    "name": "Boranup Beach",
    "latitude": -34.16579525,
    "longitude": 115.02822876,
    "visible": false
  },
  {
    "spot-id": 35,
    "region-id": null,
    "name": "Shichirigahama",
    "latitude": 35.30479414,
    "longitude": 139.51173306,
    "visible": false
  },
  {
    "spot-id": 36,
    "region-id": 49,
    "name": "The Hut - Paradise Cove",
    "latitude": 34.01794931,
    "longitude": -118.78632545,
    "visible": false
  },
  {
    "spot-id": 38,
    "region-id": null,
    "name": "Caletta",
    "latitude": 28.75050358,
    "longitude": -13.93227339,
    "visible": false
  },
  {
    "spot-id": 39,
    "region-id": 59,
    "name": "Santa Maria's",
    "latitude": 36.9599828,
    "longitude": -121.98731661,
    "visible": false
  },
  {
    "spot-id": 44,
    "region-id": null,
    "name": "Molhe Leste",
    "latitude": 39.34929921,
    "longitude": -9.36794758,
    "visible": false
  },
  {
    "spot-id": 48,
    "region-id": null,
    "name": "Voidokoilia",
    "latitude": 36.96326617,
    "longitude": 21.65877342,
    "visible": false
  },
  {
    "spot-id": 53,
    "region-id": null,
    "name": "Serena",
    "latitude": 8.54809027,
    "longitude": -79.86803055,
    "visible": false
  },
  {
    "spot-id": 55,
    "region-id": null,
    "name": "Passo de Torres",
    "latitude": -29.32415892,
    "longitude": -49.71241593,
    "visible": false
  },
  {
    "spot-id": 56,
    "region-id": 75,
    "name": "Hoko river  Kydaka",
    "latitude": 48.2567985,
    "longitude": -124.24781799,
    "visible": false
  },
  {
    "spot-id": 59,
    "region-id": null,
    "name": "Playa Delphine",
    "latitude": 21.09539116,
    "longitude": -86.76418304,
    "visible": false
  },
  {
    "spot-id": 62,
    "region-id": null,
    "name": "Ostional",
    "latitude": 10.03968307,
    "longitude": -85.74554443,
    "visible": false
  },
  {
    "spot-id": 63,
    "region-id": 33,
    "name": "Imperial Beach",
    "latitude": 32.57842506,
    "longitude": -117.13425636,
    "visible": false
  },
  {
    "spot-id": 64,
    "region-id": null,
    "name": "Praia da Barra",
    "latitude": 40.64476373,
    "longitude": -8.76262665,
    "visible": false
  },
  {
    "spot-id": 69,
    "region-id": null,
    "name": "Rucos",
    "latitude": 23.44202586,
    "longitude": -106.58158779,
    "visible": false
  },
  {
    "spot-id": 70,
    "region-id": null,
    "name": "Vinanibe Lake",
    "latitude": -25.05325697,
    "longitude": 46.99951172,
    "visible": false
  },
  {
    "spot-id": 73,
    "region-id": null,
    "name": "Boneyards",
    "latitude": 51.13175398,
    "longitude": -4.24175262,
    "visible": false
  },
  {
    "spot-id": 75,
    "region-id": null,
    "name": "Forestry",
    "latitude": -36.17411907,
    "longitude": 174.65643883,
    "visible": false
  },
  {
    "spot-id": 76,
    "region-id": null,
    "name": "Paulilles",
    "latitude": 42.50567667,
    "longitude": 3.12358629,
    "visible": false
  },
  {
    "spot-id": 78,
    "region-id": null,
    "name": "Bananier",
    "latitude": 15.9996619,
    "longitude": -61.60213888,
    "visible": false
  },
  {
    "spot-id": 79,
    "region-id": null,
    "name": "Watermans",
    "latitude": -31.84796134,
    "longitude": 115.75173855,
    "visible": false
  },
  {
    "spot-id": 80,
    "region-id": null,
    "name": "Belham Valley Rivermouth",
    "latitude": 16.74142755,
    "longitude": -62.23306417,
    "visible": false
  },
  {
    "spot-id": 81,
    "region-id": null,
    "name": "Takahama",
    "latitude": 32.38083612,
    "longitude": 129.99426842,
    "visible": false
  },
  {
    "spot-id": 82,
    "region-id": null,
    "name": "Juan Grande",
    "latitude": 27.79440159,
    "longitude": -15.47078848,
    "visible": false
  },
  {
    "spot-id": 83,
    "region-id": 22,
    "name": "Ruggles",
    "latitude": 41.46801519,
    "longitude": -71.29622698,
    "visible": true
  },
  {
    "spot-id": 86,
    "region-id": null,
    "name": "Mornington Mills & Mothers Beach",
    "latitude": -38.21319848,
    "longitude": 145.03922939,
    "visible": false
  },
  {
    "spot-id": 89,
    "region-id": null,
    "name": "Fitii",
    "latitude": -16.72359089,
    "longitude": -151.04956627,
    "visible": false
  },
  {
    "spot-id": 91,
    "region-id": null,
    "name": "Palplanche",
    "latitude": -0.62208786,
    "longitude": 8.7156719,
    "visible": false
  },
  {
    "spot-id": 93,
    "region-id": null,
    "name": "south cott",
    "latitude": -32.00662855,
    "longitude": 115.74977551,
    "visible": false
  },
  {
    "spot-id": 95,
    "region-id": null,
    "name": "Coolum Beach",
    "latitude": -26.52572552,
    "longitude": 153.09336662,
    "visible": false
  },
  {
    "spot-id": 97,
    "region-id": 78,
    "name": "Senggigi",
    "latitude": -8.50293291,
    "longitude": 116.04480743,
    "visible": true
  },
  {
    "spot-id": 98,
    "region-id": 72,
    "name": "Moolack",
    "latitude": 44.69989766,
    "longitude": -124.06486988,
    "visible": false
  },
  {
    "spot-id": 99,
    "region-id": null,
    "name": "coogee beach (miracles)",
    "latitude": -32.11196807,
    "longitude": 115.7625103,
    "visible": false
  },
  {
    "spot-id": 101,
    "region-id": null,
    "name": "Stoney Point",
    "latitude": 46.97603601,
    "longitude": -91.74339294,
    "visible": false
  },
  {
    "spot-id": 103,
    "region-id": null,
    "name": "San Pancho",
    "latitude": 20.90076339,
    "longitude": -105.4171443,
    "visible": false
  },
  {
    "spot-id": 104,
    "region-id": null,
    "name": "Hideaway",
    "latitude": -18.20126439,
    "longitude": 177.64862537,
    "visible": false
  },
  {
    "spot-id": 105,
    "region-id": 4,
    "name": "L.B.I - 82st",
    "latitude": 39.60791997,
    "longitude": -74.20257211,
    "visible": true
  },
  {
    "spot-id": 107,
    "region-id": null,
    "name": "Qingshan Wan, Fujian",
    "latitude": 24.89173091,
    "longitude": 118.87361526,
    "visible": false
  },
  {
    "spot-id": 108,
    "region-id": 10,
    "name": "Beauregard",
    "latitude": 34.02652147,
    "longitude": -77.89409637,
    "visible": true
  },
  {
    "spot-id": 109,
    "region-id": null,
    "name": "Green Meadows",
    "latitude": -39.50132542,
    "longitude": 173.89863968,
    "visible": false
  },
  {
    "spot-id": 110,
    "region-id": null,
    "name": "Dixcove",
    "latitude": 4.78996777,
    "longitude": -1.94589415,
    "visible": false
  },
  {
    "spot-id": 111,
    "region-id": null,
    "name": "Blowies",
    "latitude": -35.5615745,
    "longitude": 150.38732886,
    "visible": false
  },
  {
    "spot-id": 112,
    "region-id": null,
    "name": "Honkey's",
    "latitude": 4.31279212,
    "longitude": 73.58379185,
    "visible": false
  },
  {
    "spot-id": 113,
    "region-id": null,
    "name": "Mauro",
    "latitude": -20.22666393,
    "longitude": -70.15064478,
    "visible": false
  },
  {
    "spot-id": 115,
    "region-id": 35,
    "name": "T Street",
    "latitude": 33.41524257,
    "longitude": -117.61851043,
    "visible": false
  },
  {
    "spot-id": 119,
    "region-id": null,
    "name": "Haast Beach",
    "latitude": -43.85111726,
    "longitude": 169.01607513,
    "visible": false
  },
  {
    "spot-id": 122,
    "region-id": null,
    "name": "The hub ",
    "latitude": -38.65409316,
    "longitude": 145.55937409,
    "visible": false
  },
  {
    "spot-id": 124,
    "region-id": 32,
    "name": "Holly Beach",
    "latitude": 29.77050542,
    "longitude": -93.46180916,
    "visible": true
  },
  {
    "spot-id": 125,
    "region-id": null,
    "name": "Jaco Beach",
    "latitude": 9.59854958,
    "longitude": -84.62159157,
    "visible": false
  },
  {
    "spot-id": 127,
    "region-id": null,
    "name": "Petite Soeur",
    "latitude": -5.37770491,
    "longitude": 71.75553942,
    "visible": false
  },
  {
    "spot-id": 128,
    "region-id": null,
    "name": "Osaki",
    "latitude": 35.29179966,
    "longitude": 139.55741644,
    "visible": false
  },
  {
    "spot-id": 129,
    "region-id": null,
    "name": "Noosa Main Beach",
    "latitude": -26.37049367,
    "longitude": 153.07594299,
    "visible": false
  },
  {
    "spot-id": 130,
    "region-id": 35,
    "name": "Upper Trestles",
    "latitude": 33.38556275,
    "longitude": -117.59438127,
    "visible": false
  },
  {
    "spot-id": 132,
    "region-id": null,
    "name": "Marina di Campo  ( Elba island )",
    "latitude": 42.74745338,
    "longitude": 10.24097443,
    "visible": false
  },
  {
    "spot-id": 135,
    "region-id": null,
    "name": "Blackmans Bay",
    "latitude": -43.00168442,
    "longitude": 147.32580185,
    "visible": false
  },
  {
    "spot-id": 136,
    "region-id": null,
    "name": "Hongo Reef",
    "latitude": 11.392533,
    "longitude": -86.03522301,
    "visible": false
  },
  {
    "spot-id": 138,
    "region-id": null,
    "name": "Leftovers",
    "latitude": -34.16856489,
    "longitude": 24.8345089,
    "visible": false
  },
  {
    "spot-id": 139,
    "region-id": null,
    "name": "Soup Bowl",
    "latitude": 13.21437286,
    "longitude": -59.52257931,
    "visible": false
  },
  {
    "spot-id": 140,
    "region-id": null,
    "name": "South Pacific",
    "latitude": -33.44113765,
    "longitude": 151.44297659,
    "visible": false
  },
  {
    "spot-id": 141,
    "region-id": null,
    "name": "Sapinus",
    "latitude": -17.6340021,
    "longitude": -149.62057114,
    "visible": false
  },
  {
    "spot-id": 143,
    "region-id": null,
    "name": "Martim de Sa",
    "latitude": -23.30404922,
    "longitude": -44.5534873,
    "visible": false
  },
  {
    "spot-id": 144,
    "region-id": null,
    "name": "UAQ Beach",
    "latitude": 25.60480003,
    "longitude": 55.57890594,
    "visible": false
  },
  {
    "spot-id": 146,
    "region-id": null,
    "name": "Las Salinas",
    "latitude": -32.99006008,
    "longitude": -71.54879451,
    "visible": false
  },
  {
    "spot-id": 147,
    "region-id": 2,
    "name": "Second Street",
    "latitude": 39.1814497,
    "longitude": -74.67133641,
    "visible": true
  },
  {
    "spot-id": 149,
    "region-id": null,
    "name": "Les deux jumeaux",
    "latitude": 43.38133152,
    "longitude": -1.75750673,
    "visible": false
  },
  {
    "spot-id": 150,
    "region-id": null,
    "name": "Isonoura",
    "latitude": 34.25888353,
    "longitude": 135.09458542,
    "visible": false
  },
  {
    "spot-id": 151,
    "region-id": null,
    "name": "Palms Wedge",
    "latitude": -31.46966769,
    "longitude": 152.93586731,
    "visible": false
  },
  {
    "spot-id": 153,
    "region-id": null,
    "name": "Raversijde",
    "latitude": 51.21097002,
    "longitude": 2.86253929,
    "visible": false
  },
  {
    "spot-id": 154,
    "region-id": null,
    "name": "Punta Mala",
    "latitude": -1.56528513,
    "longitude": -80.84161449,
    "visible": false
  },
  {
    "spot-id": 156,
    "region-id": 69,
    "name": "Clifford Kamph Memorial Park",
    "latitude": 41.96982895,
    "longitude": -124.20661926,
    "visible": false
  },
  {
    "spot-id": 158,
    "region-id": null,
    "name": "Gunnery",
    "latitude": -38.48470257,
    "longitude": 145.02528191,
    "visible": false
  },
  {
    "spot-id": 159,
    "region-id": null,
    "name": "Hungry",
    "latitude": 30.65196081,
    "longitude": 131.05314016,
    "visible": false
  },
  {
    "spot-id": 160,
    "region-id": null,
    "name": "Rafts",
    "latitude": -31.54694174,
    "longitude": 115.62046051,
    "visible": false
  },
  {
    "spot-id": 161,
    "region-id": null,
    "name": "Malabar",
    "latitude": -33.96482978,
    "longitude": 151.25374138,
    "visible": false
  },
  {
    "spot-id": 162,
    "region-id": null,
    "name": "La Herradura",
    "latitude": -12.18027778,
    "longitude": -77.03777778,
    "visible": false
  },
  {
    "spot-id": 163,
    "region-id": null,
    "name": "Lucien",
    "latitude": -30.85725291,
    "longitude": 30.38092017,
    "visible": false
  },
  {
    "spot-id": 165,
    "region-id": null,
    "name": "CcB",
    "latitude": -23.0345768,
    "longitude": -43.4887385,
    "visible": false
  },
  {
    "spot-id": 166,
    "region-id": 33,
    "name": "Coronado",
    "latitude": 32.68403058,
    "longitude": -117.19150543,
    "visible": false
  },
  {
    "spot-id": 167,
    "region-id": null,
    "name": "point milou",
    "latitude": 17.91933025,
    "longitude": -62.81540394,
    "visible": false
  },
  {
    "spot-id": 168,
    "region-id": null,
    "name": "Sosua",
    "latitude": 19.76670355,
    "longitude": -70.51574707,
    "visible": false
  },
  {
    "spot-id": 169,
    "region-id": null,
    "name": "Coxos",
    "latitude": 39.00057616,
    "longitude": -9.42691326,
    "visible": false
  },
  {
    "spot-id": 170,
    "region-id": null,
    "name": "Wainui Beach",
    "latitude": -38.68530876,
    "longitude": 178.07825089,
    "visible": false
  },
  {
    "spot-id": 172,
    "region-id": null,
    "name": "Broad Cove",
    "latitude": 44.17714233,
    "longitude": -64.47011266,
    "visible": false
  },
  {
    "spot-id": 178,
    "region-id": 16,
    "name": "FA's",
    "latitude": 29.85897568,
    "longitude": -81.26629829,
    "visible": true
  },
  {
    "spot-id": 180,
    "region-id": null,
    "name": "Bidart - Plage centrale",
    "latitude": 43.43709061,
    "longitude": -1.59675121,
    "visible": false
  },
  {
    "spot-id": 181,
    "region-id": null,
    "name": "El Paredon",
    "latitude": 13.91657247,
    "longitude": -91.07013702,
    "visible": false
  },
  {
    "spot-id": 183,
    "region-id": null,
    "name": "Muraya",
    "latitude": 12.43369532,
    "longitude": -69.8707509,
    "visible": false
  },
  {
    "spot-id": 184,
    "region-id": null,
    "name": "Colliers Beach",
    "latitude": -40.11675602,
    "longitude": 143.9566429,
    "visible": false
  },
  {
    "spot-id": 185,
    "region-id": null,
    "name": "Caves",
    "latitude": -43.18876658,
    "longitude": 147.84361839,
    "visible": false
  },
  {
    "spot-id": 186,
    "region-id": null,
    "name": "Magandas Reef",
    "latitude": 13.46751025,
    "longitude": 144.64088917,
    "visible": false
  },
  {
    "spot-id": 189,
    "region-id": null,
    "name": "Etampes",
    "latitude": 48.42739228,
    "longitude": 2.16239691,
    "visible": false
  },
  {
    "spot-id": 191,
    "region-id": null,
    "name": "Glyfada Corfu",
    "latitude": 39.59209749,
    "longitude": 19.80549574,
    "visible": false
  },
  {
    "spot-id": 192,
    "region-id": 64,
    "name": "North beach, pt reyes",
    "latitude": 38.07801092,
    "longitude": -122.97535658,
    "visible": false
  },
  {
    "spot-id": 193,
    "region-id": null,
    "name": "Crayfish Reef",
    "latitude": -33.73332502,
    "longitude": 18.43150735,
    "visible": false
  },
  {
    "spot-id": 195,
    "region-id": null,
    "name": "Horseshoes bay",
    "latitude": -36.42371697,
    "longitude": 150.07603168,
    "visible": false
  },
  {
    "spot-id": 196,
    "region-id": null,
    "name": "Ile de R\u00c3\u00a9 - Petit bec",
    "latitude": 46.25537204,
    "longitude": -1.5216279,
    "visible": false
  },
  {
    "spot-id": 197,
    "region-id": null,
    "name": "Lozari Beach",
    "latitude": 42.64137785,
    "longitude": 9.01580572,
    "visible": false
  },
  {
    "spot-id": 198,
    "region-id": null,
    "name": "El Paso",
    "latitude": -12.33989702,
    "longitude": -76.82653427,
    "visible": false
  },
  {
    "spot-id": 200,
    "region-id": null,
    "name": "Atashika",
    "latitude": 33.92890425,
    "longitude": 136.14858627,
    "visible": false
  },
  {
    "spot-id": 201,
    "region-id": null,
    "name": "Guriri",
    "latitude": -18.7393779,
    "longitude": -39.74638939,
    "visible": false
  },
  {
    "spot-id": 202,
    "region-id": null,
    "name": "D\u00c3\u00a1lkur",
    "latitude": 64.47689948,
    "longitude": -14.49235201,
    "visible": false
  },
  {
    "spot-id": 203,
    "region-id": null,
    "name": "Saltburn",
    "latitude": 54.58595315,
    "longitude": -0.96950054,
    "visible": false
  },
  {
    "spot-id": 204,
    "region-id": null,
    "name": "Estaleirinho",
    "latitude": -27.04911229,
    "longitude": -48.58677864,
    "visible": false
  },
  {
    "spot-id": 205,
    "region-id": 1,
    "name": "The Cove -  Delaware",
    "latitude": 38.77737257,
    "longitude": -75.0844717,
    "visible": true
  },
  {
    "spot-id": 206,
    "region-id": 59,
    "name": "Murph Bar",
    "latitude": 36.96066006,
    "longitude": -122.00051308,
    "visible": false
  },
  {
    "spot-id": 210,
    "region-id": null,
    "name": "Windmills",
    "latitude": 21.02538605,
    "longitude": -156.62624359,
    "visible": false
  },
  {
    "spot-id": 212,
    "region-id": null,
    "name": "Ondres-Plage",
    "latitude": 43.57815246,
    "longitude": -1.49027824,
    "visible": false
  },
  {
    "spot-id": 214,
    "region-id": null,
    "name": "Praia do Chaves",
    "latitude": 16.14189767,
    "longitude": -22.90709496,
    "visible": false
  },
  {
    "spot-id": 215,
    "region-id": null,
    "name": "\u00c3\u2013zdere Plaj",
    "latitude": 37.98840914,
    "longitude": 27.13221252,
    "visible": false
  },
  {
    "spot-id": 218,
    "region-id": 70,
    "name": "Port Orford",
    "latitude": 42.74158935,
    "longitude": -124.49223965,
    "visible": false
  },
  {
    "spot-id": 219,
    "region-id": null,
    "name": "Islita",
    "latitude": 9.85216648,
    "longitude": -85.40061235,
    "visible": false
  },
  {
    "spot-id": 221,
    "region-id": null,
    "name": "Praia Azul",
    "latitude": 39.10955056,
    "longitude": -9.39554214,
    "visible": false
  },
  {
    "spot-id": 222,
    "region-id": null,
    "name": "Le Petit Minou",
    "latitude": 48.33882209,
    "longitude": -4.61623192,
    "visible": false
  },
  {
    "spot-id": 223,
    "region-id": null,
    "name": "Umina Point",
    "latitude": -33.53459822,
    "longitude": 151.31461143,
    "visible": false
  },
  {
    "spot-id": 224,
    "region-id": null,
    "name": "Guinjata Bay",
    "latitude": -24.07224905,
    "longitude": 35.49940109,
    "visible": false
  },
  {
    "spot-id": 226,
    "region-id": null,
    "name": "Aberdeen",
    "latitude": 57.16463944,
    "longitude": -2.07933426,
    "visible": false
  },
  {
    "spot-id": 227,
    "region-id": null,
    "name": "Waikiki",
    "latitude": -38.08127079,
    "longitude": -57.53643036,
    "visible": false
  },
  {
    "spot-id": 228,
    "region-id": null,
    "name": "Apollonas. Naxos",
    "latitude": 37.18001394,
    "longitude": 25.55419922,
    "visible": false
  },
  {
    "spot-id": 229,
    "region-id": null,
    "name": "La Sud",
    "latitude": 43.66184897,
    "longitude": -1.44727707,
    "visible": false
  },
  {
    "spot-id": 231,
    "region-id": null,
    "name": "Islares",
    "latitude": 43.40433038,
    "longitude": -3.31465244,
    "visible": false
  },
  {
    "spot-id": 232,
    "region-id": null,
    "name": "Punta Mango",
    "latitude": 13.16012201,
    "longitude": -88.20872426,
    "visible": false
  },
  {
    "spot-id": 233,
    "region-id": 46,
    "name": "Bee Hives",
    "latitude": 33.73661734,
    "longitude": -118.39845657,
    "visible": false
  },
  {
    "spot-id": 234,
    "region-id": 4,
    "name": "Cape May Ave.",
    "latitude": 39.68971919,
    "longitude": -74.14284468,
    "visible": true
  },
  {
    "spot-id": 235,
    "region-id": null,
    "name": "Krioneri PARGA",
    "latitude": 39.28251325,
    "longitude": 20.40445447,
    "visible": false
  },
  {
    "spot-id": 237,
    "region-id": null,
    "name": "Marina",
    "latitude": 32.16703952,
    "longitude": 34.79670525,
    "visible": false
  },
  {
    "spot-id": 239,
    "region-id": 65,
    "name": "Caspar",
    "latitude": 39.36064798,
    "longitude": -123.81660461,
    "visible": false
  },
  {
    "spot-id": 242,
    "region-id": null,
    "name": "Presleys Bay",
    "latitude": -31.87954375,
    "longitude": 29.26468134,
    "visible": false
  },
  {
    "spot-id": 243,
    "region-id": 74,
    "name": "Ocean Shores",
    "latitude": 46.97299067,
    "longitude": -124.17434692,
    "visible": false
  },
  {
    "spot-id": 245,
    "region-id": 50,
    "name": "Emma Wood",
    "latitude": 34.28650984,
    "longitude": -119.32868958,
    "visible": false
  },
  {
    "spot-id": 246,
    "region-id": null,
    "name": "Warilla beach",
    "latitude": -34.5516236,
    "longitude": 150.87051004,
    "visible": false
  },
  {
    "spot-id": 247,
    "region-id": null,
    "name": "Muckros",
    "latitude": 54.6162885,
    "longitude": -8.58486446,
    "visible": false
  },
  {
    "spot-id": 248,
    "region-id": 34,
    "name": "Scripps",
    "latitude": 32.86566529,
    "longitude": -117.25636125,
    "visible": false
  },
  {
    "spot-id": 249,
    "region-id": null,
    "name": "Farstadstranda-Farstad",
    "latitude": 62.98377618,
    "longitude": 7.15055466,
    "visible": false
  },
  {
    "spot-id": 251,
    "region-id": null,
    "name": "The Wreck",
    "latitude": -34.09574687,
    "longitude": 23.37633276,
    "visible": false
  },
  {
    "spot-id": 252,
    "region-id": null,
    "name": "sandy cape",
    "latitude": -30.19884972,
    "longitude": 114.99664307,
    "visible": false
  },
  {
    "spot-id": 253,
    "region-id": null,
    "name": "Sao Pedro de Moel",
    "latitude": 39.75702221,
    "longitude": -9.03453827,
    "visible": false
  },
  {
    "spot-id": 254,
    "region-id": null,
    "name": "Koeelbay (Ledges)",
    "latitude": -34.23202873,
    "longitude": 18.84429932,
    "visible": false
  },
  {
    "spot-id": 255,
    "region-id": null,
    "name": "Back Beach",
    "latitude": -39.06826339,
    "longitude": 174.01507437,
    "visible": false
  },
  {
    "spot-id": 258,
    "region-id": 5,
    "name": "Sands",
    "latitude": 40.37097228,
    "longitude": -73.97362947,
    "visible": true
  },
  {
    "spot-id": 261,
    "region-id": null,
    "name": "wamberal.winston street",
    "latitude": -33.41066626,
    "longitude": 151.4683342,
    "visible": false
  },
  {
    "spot-id": 262,
    "region-id": 20,
    "name": "Jones Beach",
    "latitude": 40.58886299,
    "longitude": -73.73036385,
    "visible": true
  },
  {
    "spot-id": 264,
    "region-id": null,
    "name": "Martinhal",
    "latitude": 37.01939577,
    "longitude": -8.92557621,
    "visible": false
  },
  {
    "spot-id": 265,
    "region-id": null,
    "name": "14th km.",
    "latitude": 30.50612172,
    "longitude": -9.68589664,
    "visible": false
  },
  {
    "spot-id": 266,
    "region-id": null,
    "name": "Guidel",
    "latitude": 47.75451634,
    "longitude": -3.51566792,
    "visible": false
  },
  {
    "spot-id": 267,
    "region-id": null,
    "name": "Sun rider",
    "latitude": -37.95677773,
    "longitude": -57.53816843,
    "visible": false
  },
  {
    "spot-id": 268,
    "region-id": 42,
    "name": "Seal Beach Pier Northside",
    "latitude": 33.73799117,
    "longitude": -118.10897411,
    "visible": false
  },
  {
    "spot-id": 269,
    "region-id": 68,
    "name": "Wilson Creek",
    "latitude": 41.60347376,
    "longitude": -124.10173416,
    "visible": false
  },
  {
    "spot-id": 271,
    "region-id": null,
    "name": "Sanguessuga",
    "latitude": 37.90598676,
    "longitude": -8.80261302,
    "visible": false
  },
  {
    "spot-id": 273,
    "region-id": null,
    "name": "Laginha",
    "latitude": 16.89528333,
    "longitude": -24.99200833,
    "visible": false
  },
  {
    "spot-id": 276,
    "region-id": null,
    "name": "Hunters",
    "latitude": -38.48392992,
    "longitude": 144.03443098,
    "visible": false
  },
  {
    "spot-id": 277,
    "region-id": null,
    "name": "Hookipa",
    "latitude": 20.93314881,
    "longitude": -156.35822117,
    "visible": false
  },
  {
    "spot-id": 278,
    "region-id": null,
    "name": "Tandag",
    "latitude": 9.07158547,
    "longitude": 126.19102478,
    "visible": false
  },
  {
    "spot-id": 280,
    "region-id": null,
    "name": "Coco beach",
    "latitude": -6.77037515,
    "longitude": 39.28385639,
    "visible": false
  },
  {
    "spot-id": 281,
    "region-id": null,
    "name": "TOCONES",
    "latitude": 18.45138974,
    "longitude": -65.95462918,
    "visible": false
  },
  {
    "spot-id": 283,
    "region-id": null,
    "name": "La Cupula",
    "latitude": -23.71659392,
    "longitude": -70.436638,
    "visible": false
  },
  {
    "spot-id": 284,
    "region-id": null,
    "name": "Caleta de caballo",
    "latitude": 29.11739343,
    "longitude": -13.63955855,
    "visible": false
  },
  {
    "spot-id": 285,
    "region-id": 75,
    "name": "Neah Bay - Hobuck",
    "latitude": 48.32815906,
    "longitude": -124.66135561,
    "visible": false
  },
  {
    "spot-id": 286,
    "region-id": null,
    "name": "Electrics",
    "latitude": -34.11933913,
    "longitude": 18.46035987,
    "visible": false
  },
  {
    "spot-id": 287,
    "region-id": 3,
    "name": "38th St. Beach",
    "latitude": 39.38791729,
    "longitude": -74.38632488,
    "visible": true
  },
  {
    "spot-id": 288,
    "region-id": null,
    "name": "Asunchillo",
    "latitude": 11.93398889,
    "longitude": -86.62079722,
    "visible": false
  },
  {
    "spot-id": 289,
    "region-id": null,
    "name": "Grindavik Antenas",
    "latitude": 63.83043084,
    "longitude": -22.45275021,
    "visible": false
  },
  {
    "spot-id": 290,
    "region-id": null,
    "name": "Tidle Pool",
    "latitude": -34.3555691,
    "longitude": 21.88071012,
    "visible": false
  },
  {
    "spot-id": 292,
    "region-id": null,
    "name": "Kahalu'u",
    "latitude": 19.5811758,
    "longitude": -155.96801877,
    "visible": false
  },
  {
    "spot-id": 293,
    "region-id": null,
    "name": "Pelle \u00c3\u00a0 Tarte",
    "latitude": 14.77399033,
    "longitude": -60.89399815,
    "visible": false
  },
  {
    "spot-id": 295,
    "region-id": null,
    "name": "Decaplage",
    "latitude": 36.78681029,
    "longitude": 3.323493,
    "visible": false
  },
  {
    "spot-id": 296,
    "region-id": 34,
    "name": "Horseshoe",
    "latitude": 32.8387074,
    "longitude": -117.28228211,
    "visible": false
  },
  {
    "spot-id": 298,
    "region-id": null,
    "name": "Piratininga",
    "latitude": -22.95469853,
    "longitude": -43.09567451,
    "visible": false
  },
  {
    "spot-id": 299,
    "region-id": null,
    "name": "three spot",
    "latitude": 29.19431265,
    "longitude": -114.77505036,
    "visible": false
  },
  {
    "spot-id": 301,
    "region-id": null,
    "name": "Ilha do farol",
    "latitude": 36.9723354,
    "longitude": -7.86529899,
    "visible": false
  },
  {
    "spot-id": 302,
    "region-id": null,
    "name": "Dolphins",
    "latitude": 18.17932979,
    "longitude": -63.14529419,
    "visible": false
  },
  {
    "spot-id": 303,
    "region-id": null,
    "name": "Gomb\u00c3\u00a9",
    "latitude": 0.32392329,
    "longitude": 9.31125641,
    "visible": false
  },
  {
    "spot-id": 304,
    "region-id": null,
    "name": "La Puntilla",
    "latitude": -34.37971258,
    "longitude": -72.01332092,
    "visible": false
  },
  {
    "spot-id": 306,
    "region-id": null,
    "name": "Bumboras",
    "latitude": -29.05866437,
    "longitude": 167.9458952,
    "visible": false
  },
  {
    "spot-id": 307,
    "region-id": null,
    "name": "Sarisu",
    "latitude": 41.14007561,
    "longitude": 30.15212774,
    "visible": false
  },
  {
    "spot-id": 309,
    "region-id": null,
    "name": "Llorente",
    "latitude": 11.41027275,
    "longitude": 125.54969251,
    "visible": false
  },
  {
    "spot-id": 310,
    "region-id": null,
    "name": "Praia Grande",
    "latitude": 38.81483364,
    "longitude": -9.47854042,
    "visible": false
  },
  {
    "spot-id": 313,
    "region-id": null,
    "name": "Kovalam",
    "latitude": 8.38532487,
    "longitude": 76.9783473,
    "visible": false
  },
  {
    "spot-id": 315,
    "region-id": 20,
    "name": "Tobay beach",
    "latitude": 40.60859423,
    "longitude": -73.429479,
    "visible": true
  },
  {
    "spot-id": 316,
    "region-id": null,
    "name": "Lhoknga",
    "latitude": 5.47511348,
    "longitude": 95.23266792,
    "visible": false
  },
  {
    "spot-id": 318,
    "region-id": null,
    "name": "Strickland Bay",
    "latitude": -32.01891986,
    "longitude": 115.48639297,
    "visible": false
  },
  {
    "spot-id": 319,
    "region-id": null,
    "name": "Beacons",
    "latitude": 0.21172409,
    "longitude": 73.14136147,
    "visible": false
  },
  {
    "spot-id": 321,
    "region-id": null,
    "name": "Needles",
    "latitude": 50.66259478,
    "longitude": -1.58500314,
    "visible": false
  },
  {
    "spot-id": 322,
    "region-id": 2,
    "name": "Avalon - 15th Street",
    "latitude": 39.10260721,
    "longitude": -74.70912337,
    "visible": true
  },
  {
    "spot-id": 324,
    "region-id": null,
    "name": "Insides",
    "latitude": -28.17108126,
    "longitude": 153.55227917,
    "visible": false
  },
  {
    "spot-id": 325,
    "region-id": null,
    "name": "Las Barras de Piaxtla",
    "latitude": 23.74575438,
    "longitude": -106.84341431,
    "visible": false
  },
  {
    "spot-id": 326,
    "region-id": null,
    "name": "Odomari",
    "latitude": 33.89891688,
    "longitude": 136.11837387,
    "visible": false
  },
  {
    "spot-id": 327,
    "region-id": null,
    "name": "Sidi Rbat",
    "latitude": 30.0807552,
    "longitude": -9.67045784,
    "visible": false
  },
  {
    "spot-id": 328,
    "region-id": null,
    "name": "Dromi(Ashdod)",
    "latitude": 31.79193201,
    "longitude": 34.62691069,
    "visible": false
  },
  {
    "spot-id": 330,
    "region-id": 66,
    "name": "Deadman's",
    "latitude": 40.02358875,
    "longitude": -124.05747771,
    "visible": false
  },
  {
    "spot-id": 331,
    "region-id": null,
    "name": "Puerto Morin",
    "latitude": -8.42873429,
    "longitude": -78.92354965,
    "visible": false
  },
  {
    "spot-id": 333,
    "region-id": null,
    "name": "Dielette Harbour",
    "latitude": 49.55145645,
    "longitude": -1.86426401,
    "visible": false
  },
  {
    "spot-id": 334,
    "region-id": null,
    "name": "Blacks",
    "latitude": -39.07677595,
    "longitude": 177.79998779,
    "visible": false
  },
  {
    "spot-id": 335,
    "region-id": null,
    "name": "Isla Negra",
    "latitude": -33.44560494,
    "longitude": -71.68362379,
    "visible": false
  },
  {
    "spot-id": 336,
    "region-id": null,
    "name": "Zeto Point - Adak",
    "latitude": 51.91017892,
    "longitude": -176.56115055,
    "visible": false
  },
  {
    "spot-id": 337,
    "region-id": null,
    "name": "Macau HacSa Beach",
    "latitude": 22.1229358,
    "longitude": 113.57133865,
    "visible": false
  },
  {
    "spot-id": 338,
    "region-id": null,
    "name": "El palmar point",
    "latitude": 8.46553825,
    "longitude": -79.95853901,
    "visible": false
  },
  {
    "spot-id": 339,
    "region-id": 85,
    "name": "Telescopes",
    "latitude": -2.06584025,
    "longitude": 99.54265594,
    "visible": true
  },
  {
    "spot-id": 340,
    "region-id": null,
    "name": "Santa Reparata",
    "latitude": 41.23001235,
    "longitude": 9.16723251,
    "visible": false
  },
  {
    "spot-id": 341,
    "region-id": null,
    "name": "Dune du Pyla",
    "latitude": 44.58149658,
    "longitude": -1.21810913,
    "visible": false
  },
  {
    "spot-id": 343,
    "region-id": null,
    "name": "Big bommie",
    "latitude": -33.27828775,
    "longitude": 151.57531142,
    "visible": false
  },
  {
    "spot-id": 344,
    "region-id": null,
    "name": "Maroubra North End Point",
    "latitude": -33.94594996,
    "longitude": 151.26007676,
    "visible": false
  },
  {
    "spot-id": 345,
    "region-id": 45,
    "name": "Santa Monica - Samo 20",
    "latitude": 34.00457359,
    "longitude": -118.49235535,
    "visible": false
  },
  {
    "spot-id": 346,
    "region-id": 59,
    "name": "26th Ave.",
    "latitude": 36.95612917,
    "longitude": -121.98070765,
    "visible": false
  },
  {
    "spot-id": 347,
    "region-id": null,
    "name": "La Tejita (El Medano)",
    "latitude": 28.02959916,
    "longitude": -16.55193329,
    "visible": false
  },
  {
    "spot-id": 348,
    "region-id": null,
    "name": "Fresh Water West",
    "latitude": 51.65882016,
    "longitude": -5.06246567,
    "visible": false
  },
  {
    "spot-id": 350,
    "region-id": null,
    "name": "South Point",
    "latitude": -33.86264729,
    "longitude": 114.97570038,
    "visible": false
  },
  {
    "spot-id": 351,
    "region-id": null,
    "name": "Kiama Pools",
    "latitude": -34.66935855,
    "longitude": 150.86187601,
    "visible": false
  },
  {
    "spot-id": 352,
    "region-id": null,
    "name": "Baia Formosa",
    "latitude": -6.36699371,
    "longitude": -35.01480103,
    "visible": false
  },
  {
    "spot-id": 353,
    "region-id": null,
    "name": "Sauveterre",
    "latitude": 46.55289916,
    "longitude": -1.83389068,
    "visible": false
  },
  {
    "spot-id": 354,
    "region-id": null,
    "name": "Zipolite",
    "latitude": 15.65799887,
    "longitude": -96.52622223,
    "visible": false
  },
  {
    "spot-id": 356,
    "region-id": null,
    "name": "Porto Ferro",
    "latitude": 40.68480366,
    "longitude": 8.20301056,
    "visible": false
  },
  {
    "spot-id": 359,
    "region-id": null,
    "name": "Guegue",
    "latitude": 0.43596741,
    "longitude": 9.41657603,
    "visible": false
  },
  {
    "spot-id": 360,
    "region-id": null,
    "name": "Oostende Roje meur",
    "latitude": 51.22420275,
    "longitude": 2.89320287,
    "visible": false
  },
  {
    "spot-id": 361,
    "region-id": null,
    "name": "Bungan",
    "latitude": -33.66613958,
    "longitude": 151.32053375,
    "visible": false
  },
  {
    "spot-id": 362,
    "region-id": null,
    "name": "Bombinhas",
    "latitude": -27.14836684,
    "longitude": -48.48953247,
    "visible": false
  },
  {
    "spot-id": 363,
    "region-id": null,
    "name": "smidstrup strand",
    "latitude": 56.11380517,
    "longitude": 12.20336974,
    "visible": false
  },
  {
    "spot-id": 366,
    "region-id": null,
    "name": "Kobukei",
    "latitude": 31.64023897,
    "longitude": 131.45635128,
    "visible": false
  },
  {
    "spot-id": 367,
    "region-id": null,
    "name": "Avalanche Oahu",
    "latitude": 21.59526773,
    "longitude": -158.1147261,
    "visible": false
  },
  {
    "spot-id": 370,
    "region-id": null,
    "name": "Flossl\u00c3\u00a4nde (River)",
    "latitude": 48.09024001,
    "longitude": 11.54527634,
    "visible": false
  },
  {
    "spot-id": 371,
    "region-id": null,
    "name": "Song Jung Beach",
    "latitude": 35.17780727,
    "longitude": 129.1999054,
    "visible": false
  },
  {
    "spot-id": 373,
    "region-id": null,
    "name": "Wollongong The Bombie North Beach",
    "latitude": -34.41360133,
    "longitude": 150.90695858,
    "visible": false
  },
  {
    "spot-id": 374,
    "region-id": null,
    "name": "le guet",
    "latitude": 48.09774809,
    "longitude": -4.33456779,
    "visible": false
  },
  {
    "spot-id": 375,
    "region-id": 20,
    "name": "Coastguards",
    "latitude": 40.63245395,
    "longitude": -73.32481384,
    "visible": true
  },
  {
    "spot-id": 376,
    "region-id": 53,
    "name": "Seals",
    "latitude": 34.43472616,
    "longitude": -119.94436383,
    "visible": false
  },
  {
    "spot-id": 377,
    "region-id": null,
    "name": "Praia do Cassino",
    "latitude": -32.17833677,
    "longitude": -52.14214325,
    "visible": false
  },
  {
    "spot-id": 378,
    "region-id": null,
    "name": "Riomar",
    "latitude": 8.45644584,
    "longitude": -79.97145653,
    "visible": false
  },
  {
    "spot-id": 379,
    "region-id": null,
    "name": "B\u00c3\u00b8nnerup \u00c3\u02dcst mole",
    "latitude": 56.53557722,
    "longitude": 10.71484566,
    "visible": false
  },
  {
    "spot-id": 380,
    "region-id": null,
    "name": "Leira",
    "latitude": 43.30850725,
    "longitude": -8.6428459,
    "visible": false
  },
  {
    "spot-id": 382,
    "region-id": null,
    "name": "Antlers beach",
    "latitude": 49.74052691,
    "longitude": -119.76136208,
    "visible": false
  },
  {
    "spot-id": 383,
    "region-id": null,
    "name": "Cachera",
    "latitude": -21.04875812,
    "longitude": 55.21828294,
    "visible": false
  },
  {
    "spot-id": 384,
    "region-id": null,
    "name": "Melnitza",
    "latitude": 42.16543925,
    "longitude": 27.85806656,
    "visible": false
  },
  {
    "spot-id": 386,
    "region-id": null,
    "name": "Little Marley Point",
    "latitude": -34.12177501,
    "longitude": 151.13748372,
    "visible": false
  },
  {
    "spot-id": 387,
    "region-id": 65,
    "name": "Jug Handle State Beach",
    "latitude": 39.37726048,
    "longitude": -123.82003246,
    "visible": false
  },
  {
    "spot-id": 389,
    "region-id": null,
    "name": "Playa Guiones",
    "latitude": 9.94725125,
    "longitude": -85.67351103,
    "visible": false
  },
  {
    "spot-id": 390,
    "region-id": null,
    "name": "Lagoa de Albufeira",
    "latitude": 38.50821175,
    "longitude": -9.18380588,
    "visible": false
  },
  {
    "spot-id": 392,
    "region-id": null,
    "name": "Tinos island - Kolimbithres",
    "latitude": 37.63075109,
    "longitude": 25.14255524,
    "visible": false
  },
  {
    "spot-id": 393,
    "region-id": null,
    "name": "Ile de R\u00c3\u00a9 - Le lizay",
    "latitude": 46.25792391,
    "longitude": -1.51787281,
    "visible": false
  },
  {
    "spot-id": 394,
    "region-id": 30,
    "name": "Holmes beach pier",
    "latitude": 27.49726099,
    "longitude": -82.71413058,
    "visible": true
  },
  {
    "spot-id": 395,
    "region-id": null,
    "name": "supertubes",
    "latitude": -38.48839771,
    "longitude": 144.02810097,
    "visible": false
  },
  {
    "spot-id": 396,
    "region-id": 70,
    "name": "Bandon Beaches",
    "latitude": 43.09270997,
    "longitude": -124.4346714,
    "visible": false
  },
  {
    "spot-id": 397,
    "region-id": null,
    "name": "Cabo Home",
    "latitude": 42.25319732,
    "longitude": -8.87198567,
    "visible": false
  },
  {
    "spot-id": 399,
    "region-id": 85,
    "name": "Green Bush",
    "latitude": -2.8202,
    "longitude": 100.05898333,
    "visible": true
  },
  {
    "spot-id": 401,
    "region-id": null,
    "name": "Anahola Bay",
    "latitude": 22.14761207,
    "longitude": -159.30501938,
    "visible": false
  },
  {
    "spot-id": 402,
    "region-id": null,
    "name": "end wedge",
    "latitude": -28.17104107,
    "longitude": 153.55611205,
    "visible": false
  },
  {
    "spot-id": 404,
    "region-id": null,
    "name": "Cabarete",
    "latitude": 19.74279286,
    "longitude": -70.39215088,
    "visible": false
  },
  {
    "spot-id": 406,
    "region-id": null,
    "name": "Karekare",
    "latitude": -36.98911664,
    "longitude": 174.47147369,
    "visible": false
  },
  {
    "spot-id": 407,
    "region-id": null,
    "name": "mahaena",
    "latitude": -17.5623741,
    "longitude": -149.32466984,
    "visible": false
  },
  {
    "spot-id": 408,
    "region-id": null,
    "name": "Mchinga beach",
    "latitude": -9.73139213,
    "longitude": 39.72039979,
    "visible": false
  },
  {
    "spot-id": 409,
    "region-id": null,
    "name": "beerbarral beach",
    "latitude": -41.28390781,
    "longitude": 148.3520871,
    "visible": false
  },
  {
    "spot-id": 410,
    "region-id": null,
    "name": "Kudaka Left",
    "latitude": 26.15054571,
    "longitude": 127.88656712,
    "visible": false
  },
  {
    "spot-id": 411,
    "region-id": null,
    "name": "Kiama Surf Beach",
    "latitude": -34.67641738,
    "longitude": 150.8549881,
    "visible": false
  },
  {
    "spot-id": 414,
    "region-id": null,
    "name": "Lawrencetown",
    "latitude": 44.64215484,
    "longitude": -63.34201813,
    "visible": false
  },
  {
    "spot-id": 416,
    "region-id": null,
    "name": "Santa Rosa",
    "latitude": -12.38200616,
    "longitude": -76.78911209,
    "visible": false
  },
  {
    "spot-id": 421,
    "region-id": null,
    "name": "North bay",
    "latitude": 54.29038068,
    "longitude": -0.40117264,
    "visible": false
  },
  {
    "spot-id": 423,
    "region-id": null,
    "name": "Piscinas",
    "latitude": -4.44559638,
    "longitude": -81.27608299,
    "visible": false
  },
  {
    "spot-id": 424,
    "region-id": 73,
    "name": "Needles",
    "latitude": 45.88209186,
    "longitude": -123.96710873,
    "visible": false
  },
  {
    "spot-id": 425,
    "region-id": null,
    "name": "Praia do Barbas",
    "latitude": 38.64100896,
    "longitude": -9.24156189,
    "visible": false
  },
  {
    "spot-id": 428,
    "region-id": null,
    "name": "Diano Marina",
    "latitude": 43.90135576,
    "longitude": 8.07744026,
    "visible": false
  },
  {
    "spot-id": 430,
    "region-id": null,
    "name": "Great Keppel Island Airport",
    "latitude": -23.1915298,
    "longitude": 150.93482338,
    "visible": false
  },
  {
    "spot-id": 434,
    "region-id": null,
    "name": "Generoso",
    "latitude": 28.75468456,
    "longitude": -13.88555467,
    "visible": false
  },
  {
    "spot-id": 435,
    "region-id": null,
    "name": "six kings",
    "latitude": -30.20789953,
    "longitude": 114.99020576,
    "visible": false
  },
  {
    "spot-id": 437,
    "region-id": null,
    "name": "Bishtpala Out",
    "latitude": 41.38840053,
    "longitude": 19.395504,
    "visible": false
  },
  {
    "spot-id": 438,
    "region-id": 40,
    "name": "Dutches A-Frame",
    "latitude": 33.16602106,
    "longitude": -117.36146361,
    "visible": false
  },
  {
    "spot-id": 440,
    "region-id": null,
    "name": "Fare",
    "latitude": -16.71249352,
    "longitude": -151.04589701,
    "visible": false
  },
  {
    "spot-id": 441,
    "region-id": null,
    "name": "Seme Beach, Limbe",
    "latitude": 4.0118773,
    "longitude": 9.13959503,
    "visible": false
  },
  {
    "spot-id": 442,
    "region-id": null,
    "name": "Ol\u00c3\u00a9ron - Les huttes",
    "latitude": 46.00487644,
    "longitude": -1.39286041,
    "visible": false
  },
  {
    "spot-id": 444,
    "region-id": null,
    "name": "Luna Park",
    "latitude": -38.75930395,
    "longitude": 143.21107864,
    "visible": false
  },
  {
    "spot-id": 445,
    "region-id": null,
    "name": "Seconds",
    "latitude": -34.09660013,
    "longitude": 18.80065978,
    "visible": false
  },
  {
    "spot-id": 446,
    "region-id": null,
    "name": "Three Mile",
    "latitude": 57.43646171,
    "longitude": -152.4062705,
    "visible": false
  },
  {
    "spot-id": 447,
    "region-id": null,
    "name": "Lighthouse beach",
    "latitude": 6.39445999,
    "longitude": 3.39477539,
    "visible": false
  },
  {
    "spot-id": 448,
    "region-id": null,
    "name": "Big Surf AZ",
    "latitude": 33.4458377,
    "longitude": -111.91300392,
    "visible": false
  },
  {
    "spot-id": 449,
    "region-id": null,
    "name": "Matanzas",
    "latitude": -33.9608744,
    "longitude": -71.87936068,
    "visible": false
  },
  {
    "spot-id": 450,
    "region-id": null,
    "name": "The Boot",
    "latitude": -33.89796402,
    "longitude": 151.27586961,
    "visible": false
  },
  {
    "spot-id": 451,
    "region-id": 1,
    "name": "Tower Road",
    "latitude": 38.67807255,
    "longitude": -75.07026672,
    "visible": true
  },
  {
    "spot-id": 452,
    "region-id": null,
    "name": "Cenitz",
    "latitude": 43.4232063,
    "longitude": -1.6221571,
    "visible": false
  },
  {
    "spot-id": 453,
    "region-id": null,
    "name": "Pebbly",
    "latitude": -32.17884529,
    "longitude": 152.51951337,
    "visible": false
  },
  {
    "spot-id": 454,
    "region-id": null,
    "name": "Kua Bay",
    "latitude": 19.81031518,
    "longitude": -156.00688398,
    "visible": false
  },
  {
    "spot-id": 455,
    "region-id": null,
    "name": "Castles",
    "latitude": 36.45840068,
    "longitude": 34.14491773,
    "visible": false
  },
  {
    "spot-id": 457,
    "region-id": null,
    "name": "Double Island Point",
    "latitude": -25.93234371,
    "longitude": 153.18863869,
    "visible": false
  },
  {
    "spot-id": 458,
    "region-id": null,
    "name": "Baobab",
    "latitude": 14.47197774,
    "longitude": -17.07052231,
    "visible": false
  },
  {
    "spot-id": 459,
    "region-id": null,
    "name": "11th Ave Melkbos Strand",
    "latitude": -33.67178278,
    "longitude": 18.40759277,
    "visible": false
  },
  {
    "spot-id": 460,
    "region-id": null,
    "name": "River reuss",
    "latitude": 47.35586931,
    "longitude": 8.34053278,
    "visible": false
  },
  {
    "spot-id": 462,
    "region-id": null,
    "name": "North Wall Mackay Harbour Beach",
    "latitude": -21.09879446,
    "longitude": 149.22617912,
    "visible": false
  },
  {
    "spot-id": 464,
    "region-id": null,
    "name": "Hearns",
    "latitude": -30.13006812,
    "longitude": 153.20399165,
    "visible": false
  },
  {
    "spot-id": 465,
    "region-id": 46,
    "name": "T C's",
    "latitude": 33.71994618,
    "longitude": -118.33082635,
    "visible": false
  },
  {
    "spot-id": 466,
    "region-id": null,
    "name": "Regatas",
    "latitude": -12.16593933,
    "longitude": -77.03533888,
    "visible": false
  },
  {
    "spot-id": 467,
    "region-id": null,
    "name": "New Pier",
    "latitude": -29.85970144,
    "longitude": 31.04187012,
    "visible": false
  },
  {
    "spot-id": 469,
    "region-id": null,
    "name": "whiting gun club",
    "latitude": 41.68122574,
    "longitude": -87.48451656,
    "visible": false
  },
  {
    "spot-id": 470,
    "region-id": null,
    "name": "Regencia",
    "latitude": -19.65923889,
    "longitude": -39.84157562,
    "visible": false
  },
  {
    "spot-id": 471,
    "region-id": null,
    "name": "El Skupa",
    "latitude": 20.76739752,
    "longitude": -105.53811997,
    "visible": false
  },
  {
    "spot-id": 472,
    "region-id": null,
    "name": "Playa la laja",
    "latitude": 28.05765628,
    "longitude": -15.41798115,
    "visible": false
  },
  {
    "spot-id": 473,
    "region-id": null,
    "name": "L'anse Tortue",
    "latitude": 15.58767613,
    "longitude": -61.32665992,
    "visible": false
  },
  {
    "spot-id": 474,
    "region-id": null,
    "name": "Foddini",
    "latitude": 39.80326111,
    "longitude": 9.67234612,
    "visible": false
  },
  {
    "spot-id": 475,
    "region-id": null,
    "name": "Puemape",
    "latitude": -7.51936323,
    "longitude": -79.54185247,
    "visible": false
  },
  {
    "spot-id": 476,
    "region-id": null,
    "name": "Huskisson Bommie",
    "latitude": -35.04573816,
    "longitude": 150.6754303,
    "visible": false
  },
  {
    "spot-id": 477,
    "region-id": null,
    "name": "Mar de Ajo",
    "latitude": -36.71048905,
    "longitude": -56.67393923,
    "visible": false
  },
  {
    "spot-id": 478,
    "region-id": 87,
    "name": "Machines",
    "latitude": 0.56925409,
    "longitude": 97.74656296,
    "visible": true
  },
  {
    "spot-id": 479,
    "region-id": null,
    "name": "Le\u00c3\u00a7a",
    "latitude": 41.18918315,
    "longitude": -8.70760918,
    "visible": false
  },
  {
    "spot-id": 480,
    "region-id": null,
    "name": "Motutapu",
    "latitude": -21.24486238,
    "longitude": -159.7234869,
    "visible": false
  },
  {
    "spot-id": 481,
    "region-id": null,
    "name": "Boodjidup",
    "latitude": -34.01076368,
    "longitude": 114.99750137,
    "visible": false
  },
  {
    "spot-id": 482,
    "region-id": null,
    "name": "Tanjung Resang",
    "latitude": 2.58211426,
    "longitude": 103.80620956,
    "visible": false
  },
  {
    "spot-id": 483,
    "region-id": null,
    "name": "Maragra",
    "latitude": -25.47630187,
    "longitude": 32.97166586,
    "visible": false
  },
  {
    "spot-id": 484,
    "region-id": null,
    "name": "Ballito - Surfers Point",
    "latitude": -29.53916667,
    "longitude": 31.221,
    "visible": false
  },
  {
    "spot-id": 485,
    "region-id": null,
    "name": "Strand (pipe)",
    "latitude": -34.10324102,
    "longitude": 18.81172657,
    "visible": false
  },
  {
    "spot-id": 486,
    "region-id": null,
    "name": "Wariruri",
    "latitude": 12.5595483,
    "longitude": -69.98793125,
    "visible": false
  },
  {
    "spot-id": 487,
    "region-id": null,
    "name": "Bobby's",
    "latitude": 44.4958931,
    "longitude": -1.24995232,
    "visible": false
  },
  {
    "spot-id": 488,
    "region-id": null,
    "name": "Villa Gesell",
    "latitude": -37.25599638,
    "longitude": -56.96250888,
    "visible": false
  },
  {
    "spot-id": 490,
    "region-id": null,
    "name": "Inner kom",
    "latitude": -34.14434962,
    "longitude": 18.3184737,
    "visible": false
  },
  {
    "spot-id": 491,
    "region-id": 57,
    "name": "Boners",
    "latitude": 35.6088708,
    "longitude": -121.14547849,
    "visible": false
  },
  {
    "spot-id": 492,
    "region-id": null,
    "name": "Long bay",
    "latitude": 18.09979883,
    "longitude": -76.3121295,
    "visible": false
  },
  {
    "spot-id": 493,
    "region-id": null,
    "name": "Juanchaco",
    "latitude": 3.90535868,
    "longitude": -77.31903076,
    "visible": false
  },
  {
    "spot-id": 494,
    "region-id": null,
    "name": "La Boca Con Con",
    "latitude": -32.9178273,
    "longitude": -71.51114166,
    "visible": false
  },
  {
    "spot-id": 495,
    "region-id": null,
    "name": "Port Glaud Lefts",
    "latitude": -4.66711496,
    "longitude": 55.41763544,
    "visible": false
  },
  {
    "spot-id": 497,
    "region-id": null,
    "name": "Panther Country",
    "latitude": -35.23229963,
    "longitude": 150.54136276,
    "visible": false
  },
  {
    "spot-id": 498,
    "region-id": null,
    "name": "Le Verdon",
    "latitude": 45.56574644,
    "longitude": -1.08884811,
    "visible": false
  },
  {
    "spot-id": 501,
    "region-id": null,
    "name": "Ponta do Ouro",
    "latitude": -26.84375398,
    "longitude": 32.89491177,
    "visible": false
  },
  {
    "spot-id": 502,
    "region-id": null,
    "name": "Okhotsk Beachbreak",
    "latitude": 46.85285434,
    "longitude": 143.17142487,
    "visible": false
  },
  {
    "spot-id": 503,
    "region-id": null,
    "name": "Leighton Bridge",
    "latitude": -32.02363637,
    "longitude": 115.75098217,
    "visible": false
  },
  {
    "spot-id": 504,
    "region-id": null,
    "name": "Madalena do mar",
    "latitude": 32.69981716,
    "longitude": -17.13475585,
    "visible": false
  },
  {
    "spot-id": 506,
    "region-id": null,
    "name": "Newcastle beach",
    "latitude": -32.93093054,
    "longitude": 151.78936243,
    "visible": false
  },
  {
    "spot-id": 508,
    "region-id": 2,
    "name": "Diamond Beach",
    "latitude": 38.96726714,
    "longitude": -74.83277321,
    "visible": true
  },
  {
    "spot-id": 509,
    "region-id": null,
    "name": "Machrihanish",
    "latitude": 55.47160527,
    "longitude": -5.7147789,
    "visible": false
  },
  {
    "spot-id": 511,
    "region-id": null,
    "name": "1st Bank",
    "latitude": -33.93650626,
    "longitude": 18.37736964,
    "visible": false
  },
  {
    "spot-id": 513,
    "region-id": null,
    "name": "Conchan",
    "latitude": -12.2528067,
    "longitude": -76.93214893,
    "visible": false
  },
  {
    "spot-id": 515,
    "region-id": null,
    "name": "Under the Sunrepo ",
    "latitude": 34.42790344,
    "longitude": 136.92028999,
    "visible": false
  },
  {
    "spot-id": 516,
    "region-id": null,
    "name": "Brasilito",
    "latitude": 10.40530307,
    "longitude": -85.80298662,
    "visible": false
  },
  {
    "spot-id": 517,
    "region-id": null,
    "name": "Aberdaron",
    "latitude": 52.80649733,
    "longitude": -4.70352173,
    "visible": false
  },
  {
    "spot-id": 522,
    "region-id": null,
    "name": "Pors Ar Vag",
    "latitude": 48.16688687,
    "longitude": -4.29410934,
    "visible": false
  },
  {
    "spot-id": 524,
    "region-id": null,
    "name": "altafulla",
    "latitude": 41.13440326,
    "longitude": 1.38442755,
    "visible": false
  },
  {
    "spot-id": 525,
    "region-id": 84,
    "name": "Jenny's right",
    "latitude": -5.03832165,
    "longitude": 103.76664162,
    "visible": true
  },
  {
    "spot-id": 527,
    "region-id": null,
    "name": "Las Tunas",
    "latitude": -1.66033391,
    "longitude": -80.81671715,
    "visible": false
  },
  {
    "spot-id": 528,
    "region-id": 33,
    "name": "Point Loma (Ralph's)",
    "latitude": 32.66810016,
    "longitude": -117.23660946,
    "visible": false
  },
  {
    "spot-id": 530,
    "region-id": null,
    "name": "Bocabarranco",
    "latitude": 28.15877817,
    "longitude": -15.66541225,
    "visible": false
  },
  {
    "spot-id": 532,
    "region-id": null,
    "name": "BLUFF",
    "latitude": 9.42385156,
    "longitude": -82.25616217,
    "visible": false
  },
  {
    "spot-id": 533,
    "region-id": 27,
    "name": "Ogunquit Rivermouth",
    "latitude": 43.24928211,
    "longitude": -70.59468985,
    "visible": true
  },
  {
    "spot-id": 534,
    "region-id": 16,
    "name": "Peanuts",
    "latitude": 29.70641248,
    "longitude": -81.22284651,
    "visible": true
  },
  {
    "spot-id": 538,
    "region-id": null,
    "name": "Tsaben Beach",
    "latitude": 4.05985005,
    "longitude": 9.04324472,
    "visible": false
  },
  {
    "spot-id": 539,
    "region-id": 76,
    "name": "Keramas Beach",
    "latitude": -8.59754927,
    "longitude": 115.33908606,
    "visible": true
  },
  {
    "spot-id": 540,
    "region-id": 67,
    "name": "Trinidad State Beach",
    "latitude": 41.05819111,
    "longitude": -124.15057182,
    "visible": false
  },
  {
    "spot-id": 541,
    "region-id": 29,
    "name": "Stumps",
    "latitude": 27.11531086,
    "longitude": -80.14105797,
    "visible": true
  },
  {
    "spot-id": 542,
    "region-id": null,
    "name": "Punta de Brea",
    "latitude": 17.92896671,
    "longitude": -66.9218874,
    "visible": false
  },
  {
    "spot-id": 543,
    "region-id": null,
    "name": "Bora",
    "latitude": -41.16573243,
    "longitude": 146.36508822,
    "visible": false
  },
  {
    "spot-id": 544,
    "region-id": null,
    "name": "Andrews Head",
    "latitude": 44.06795364,
    "longitude": -64.56361514,
    "visible": false
  },
  {
    "spot-id": 545,
    "region-id": null,
    "name": "Troncones point",
    "latitude": 17.79441224,
    "longitude": -101.74753368,
    "visible": false
  },
  {
    "spot-id": 546,
    "region-id": null,
    "name": "Cape st. Martin reef",
    "latitude": -32.71725497,
    "longitude": 17.91930199,
    "visible": false
  },
  {
    "spot-id": 548,
    "region-id": null,
    "name": "North Ennie",
    "latitude": -33.33443651,
    "longitude": 151.50711358,
    "visible": false
  },
  {
    "spot-id": 549,
    "region-id": null,
    "name": "Corralillo",
    "latitude": 9.90138486,
    "longitude": -84.72845078,
    "visible": false
  },
  {
    "spot-id": 550,
    "region-id": null,
    "name": "Tolcarne, The Wedge",
    "latitude": 50.4181473,
    "longitude": -5.07382214,
    "visible": false
  },
  {
    "spot-id": 551,
    "region-id": null,
    "name": "Ocean Beach",
    "latitude": -35.83695045,
    "longitude": 174.57359076,
    "visible": false
  },
  {
    "spot-id": 555,
    "region-id": null,
    "name": "Blueberry Bay",
    "latitude": 44.06582332,
    "longitude": -64.58223134,
    "visible": false
  },
  {
    "spot-id": 556,
    "region-id": 46,
    "name": "Abalone Cove",
    "latitude": 33.73777274,
    "longitude": -118.37602258,
    "visible": false
  },
  {
    "spot-id": 557,
    "region-id": null,
    "name": "Porto Covo",
    "latitude": 37.85499975,
    "longitude": -8.794384,
    "visible": false
  },
  {
    "spot-id": 559,
    "region-id": null,
    "name": "Rabo de Peixe",
    "latitude": 37.81682235,
    "longitude": -25.59041548,
    "visible": false
  },
  {
    "spot-id": 560,
    "region-id": null,
    "name": "Haydens rock",
    "latitude": -32.17697463,
    "longitude": 152.51746416,
    "visible": false
  },
  {
    "spot-id": 561,
    "region-id": null,
    "name": "Playa Larga Tardi",
    "latitude": 35.29531993,
    "longitude": -3.06763172,
    "visible": false
  },
  {
    "spot-id": 563,
    "region-id": null,
    "name": "Yellowsands Point",
    "latitude": -32.91032471,
    "longitude": 28.08049679,
    "visible": false
  },
  {
    "spot-id": 564,
    "region-id": null,
    "name": "Lido di Camaiore",
    "latitude": 43.95130473,
    "longitude": 10.15411377,
    "visible": false
  },
  {
    "spot-id": 566,
    "region-id": 60,
    "name": "Ano Nuevo",
    "latitude": 37.11447289,
    "longitude": -122.311306,
    "visible": false
  },
  {
    "spot-id": 568,
    "region-id": null,
    "name": "Smith Beach",
    "latitude": -33.6587457,
    "longitude": 115.01535416,
    "visible": false
  },
  {
    "spot-id": 569,
    "region-id": null,
    "name": "Kastro Point",
    "latitude": 39.28425717,
    "longitude": 20.39659023,
    "visible": false
  },
  {
    "spot-id": 570,
    "region-id": null,
    "name": "Triozerye",
    "latitude": 42.69152057,
    "longitude": 133.08683395,
    "visible": false
  },
  {
    "spot-id": 575,
    "region-id": null,
    "name": "Mollymook Reef",
    "latitude": -35.32941139,
    "longitude": 150.47664642,
    "visible": false
  },
  {
    "spot-id": 576,
    "region-id": null,
    "name": "D-Land",
    "latitude": 42.85328541,
    "longitude": -79.5343852,
    "visible": false
  },
  {
    "spot-id": 577,
    "region-id": null,
    "name": "Sheboygan",
    "latitude": 43.75652695,
    "longitude": -87.69355774,
    "visible": false
  },
  {
    "spot-id": 578,
    "region-id": null,
    "name": "Margidore ( Elba island )",
    "latitude": 42.76120815,
    "longitude": 10.32558203,
    "visible": false
  },
  {
    "spot-id": 579,
    "region-id": 9,
    "name": "Emerald Isle",
    "latitude": 34.660497,
    "longitude": -77.034036,
    "visible": true
  },
  {
    "spot-id": 580,
    "region-id": 72,
    "name": "Pacific City - Gas Chambers",
    "latitude": 45.21502155,
    "longitude": -123.97317052,
    "visible": false
  },
  {
    "spot-id": 582,
    "region-id": null,
    "name": "Zenith Beach",
    "latitude": -32.72016079,
    "longitude": 152.18553543,
    "visible": false
  },
  {
    "spot-id": 583,
    "region-id": null,
    "name": "AlMina Spot",
    "latitude": 60.27869964,
    "longitude": -396.19303719,
    "visible": false
  },
  {
    "spot-id": 586,
    "region-id": null,
    "name": "Admirals",
    "latitude": 54.48927379,
    "longitude": -0.59042931,
    "visible": false
  },
  {
    "spot-id": 587,
    "region-id": null,
    "name": "Tora",
    "latitude": -41.50722751,
    "longitude": 175.5152607,
    "visible": false
  },
  {
    "spot-id": 588,
    "region-id": null,
    "name": "Balao",
    "latitude": 0.98453683,
    "longitude": -79.67641354,
    "visible": false
  },
  {
    "spot-id": 589,
    "region-id": null,
    "name": "Rest Bay",
    "latitude": 51.48850324,
    "longitude": -3.72493923,
    "visible": false
  },
  {
    "spot-id": 591,
    "region-id": 88,
    "name": "Jackals",
    "latitude": 2.46112445,
    "longitude": 96.21959209,
    "visible": true
  },
  {
    "spot-id": 594,
    "region-id": null,
    "name": "Bore",
    "latitude": 58.79942747,
    "longitude": 5.5492115,
    "visible": false
  },
  {
    "spot-id": 595,
    "region-id": null,
    "name": "Praia Mel\u00c3\u00a3o",
    "latitude": 0.30040335,
    "longitude": 6.75325915,
    "visible": false
  },
  {
    "spot-id": 597,
    "region-id": null,
    "name": "Prigorodnoye",
    "latitude": 46.62049902,
    "longitude": 142.93026209,
    "visible": false
  },
  {
    "spot-id": 598,
    "region-id": null,
    "name": "Anse st Martin",
    "latitude": 49.70657111,
    "longitude": -1.8890959,
    "visible": false
  },
  {
    "spot-id": 599,
    "region-id": null,
    "name": "Bobo's Haena",
    "latitude": 22.22523011,
    "longitude": -159.57778931,
    "visible": false
  },
  {
    "spot-id": 600,
    "region-id": null,
    "name": "La Zenia",
    "latitude": 37.92734152,
    "longitude": -0.72235107,
    "visible": false
  },
  {
    "spot-id": 601,
    "region-id": null,
    "name": "rights",
    "latitude": -33.41492018,
    "longitude": 151.46761537,
    "visible": false
  },
  {
    "spot-id": 602,
    "region-id": null,
    "name": "Ironwood Beach",
    "latitude": 21.00567616,
    "longitude": -156.66040421,
    "visible": false
  },
  {
    "spot-id": 603,
    "region-id": 59,
    "name": "4 Mile",
    "latitude": 36.96556358,
    "longitude": -122.12505341,
    "visible": false
  },
  {
    "spot-id": 605,
    "region-id": null,
    "name": "Carbis Bay",
    "latitude": 50.19877023,
    "longitude": -5.46119213,
    "visible": false
  },
  {
    "spot-id": 606,
    "region-id": 75,
    "name": "Neah Bay -3rd Beach",
    "latitude": 48.36769024,
    "longitude": -124.57361519,
    "visible": false
  },
  {
    "spot-id": 607,
    "region-id": null,
    "name": "Sheringa Left",
    "latitude": -33.85983201,
    "longitude": 135.15058994,
    "visible": false
  },
  {
    "spot-id": 608,
    "region-id": 31,
    "name": "Calle Hermosa",
    "latitude": 30.34026893,
    "longitude": -87.08729267,
    "visible": true
  },
  {
    "spot-id": 609,
    "region-id": 8,
    "name": "Damneck Naval Base",
    "latitude": 36.78185232,
    "longitude": -75.95615745,
    "visible": true
  },
  {
    "spot-id": 611,
    "region-id": 75,
    "name": "The Dump",
    "latitude": 48.38926828,
    "longitude": -124.66381788,
    "visible": false
  },
  {
    "spot-id": 612,
    "region-id": null,
    "name": "Aigrettes left",
    "latitude": -21.03700245,
    "longitude": 55.21677017,
    "visible": false
  },
  {
    "spot-id": 615,
    "region-id": 60,
    "name": "Scott's Creek",
    "latitude": 37.04109953,
    "longitude": -122.23332882,
    "visible": false
  },
  {
    "spot-id": 616,
    "region-id": null,
    "name": "Playa del Hombre",
    "latitude": 27.99665134,
    "longitude": -15.37445962,
    "visible": false
  },
  {
    "spot-id": 618,
    "region-id": null,
    "name": "Vague \u00c3\u00a0 Guy - Lasalle",
    "latitude": 45.41930872,
    "longitude": -73.6030709,
    "visible": false
  },
  {
    "spot-id": 619,
    "region-id": null,
    "name": "Long Bay",
    "latitude": -36.68832122,
    "longitude": 174.75278378,
    "visible": false
  },
  {
    "spot-id": 621,
    "region-id": null,
    "name": "Crookhaven - Eddies",
    "latitude": -34.89814552,
    "longitude": 150.77025175,
    "visible": false
  },
  {
    "spot-id": 623,
    "region-id": null,
    "name": "Barre d'\u00c3\u00a9tel",
    "latitude": 47.63821266,
    "longitude": -3.20920944,
    "visible": false
  },
  {
    "spot-id": 625,
    "region-id": null,
    "name": "tabarka les aiguilles",
    "latitude": 36.95990565,
    "longitude": 8.76623154,
    "visible": false
  },
  {
    "spot-id": 627,
    "region-id": null,
    "name": "Maconde",
    "latitude": -20.49629061,
    "longitude": 57.36856699,
    "visible": false
  },
  {
    "spot-id": 629,
    "region-id": null,
    "name": "North Haven",
    "latitude": -34.78582277,
    "longitude": 138.47770929,
    "visible": false
  },
  {
    "spot-id": 632,
    "region-id": null,
    "name": "El muelle",
    "latitude": 28.74248918,
    "longitude": -13.86294365,
    "visible": false
  },
  {
    "spot-id": 634,
    "region-id": null,
    "name": "Nondo right",
    "latitude": -9.69030572,
    "longitude": 39.7396062,
    "visible": false
  },
  {
    "spot-id": 635,
    "region-id": null,
    "name": "Ehukai",
    "latitude": 21.66607319,
    "longitude": -158.05103302,
    "visible": false
  },
  {
    "spot-id": 636,
    "region-id": 34,
    "name": "Windansea",
    "latitude": 32.82942887,
    "longitude": -117.28266299,
    "visible": false
  },
  {
    "spot-id": 637,
    "region-id": null,
    "name": "Badesi",
    "latitude": 40.98210113,
    "longitude": 8.85360718,
    "visible": false
  },
  {
    "spot-id": 638,
    "region-id": null,
    "name": "stalbeach-haifa",
    "latitude": 32.67550581,
    "longitude": 34.92882013,
    "visible": false
  },
  {
    "spot-id": 639,
    "region-id": null,
    "name": "Mariner's Cove",
    "latitude": 19.27237445,
    "longitude": -81.32344007,
    "visible": false
  },
  {
    "spot-id": 640,
    "region-id": null,
    "name": "Thurlsestone",
    "latitude": 50.26670627,
    "longitude": -3.87054563,
    "visible": false
  },
  {
    "spot-id": 641,
    "region-id": null,
    "name": "Meanos",
    "latitude": -38.48621424,
    "longitude": 145.02813578,
    "visible": false
  },
  {
    "spot-id": 643,
    "region-id": null,
    "name": "Hundested strand",
    "latitude": 55.96825052,
    "longitude": 11.84729576,
    "visible": false
  },
  {
    "spot-id": 645,
    "region-id": null,
    "name": "embryo point",
    "latitude": 36.73235278,
    "longitude": 34.52311667,
    "visible": false
  },
  {
    "spot-id": 647,
    "region-id": null,
    "name": "Brandon",
    "latitude": 13.07720006,
    "longitude": -59.60836709,
    "visible": false
  },
  {
    "spot-id": 650,
    "region-id": null,
    "name": "praia de unamar",
    "latitude": -22.60952431,
    "longitude": -41.99776053,
    "visible": false
  },
  {
    "spot-id": 652,
    "region-id": 49,
    "name": "Malibu",
    "latitude": 34.03274552,
    "longitude": -118.67869377,
    "visible": false
  },
  {
    "spot-id": 653,
    "region-id": null,
    "name": "Tiber",
    "latitude": -38.38360073,
    "longitude": 144.7760725,
    "visible": false
  },
  {
    "spot-id": 655,
    "region-id": null,
    "name": "Los Patios",
    "latitude": -2.67948299,
    "longitude": -80.35717964,
    "visible": false
  },
  {
    "spot-id": 656,
    "region-id": null,
    "name": "Dogmans",
    "latitude": 18.35523834,
    "longitude": -67.27025807,
    "visible": false
  },
  {
    "spot-id": 657,
    "region-id": 28,
    "name": "Delray public beach",
    "latitude": 26.45846166,
    "longitude": -80.05752325,
    "visible": true
  },
  {
    "spot-id": 660,
    "region-id": 31,
    "name": "The Cross (Pensacola Beach)",
    "latitude": 30.32851918,
    "longitude": -87.15825252,
    "visible": true
  },
  {
    "spot-id": 662,
    "region-id": null,
    "name": "El dedo",
    "latitude": 28.05559226,
    "longitude": -16.7387706,
    "visible": false
  },
  {
    "spot-id": 664,
    "region-id": null,
    "name": "La Virazon",
    "latitude": -38.57876875,
    "longitude": -58.69291306,
    "visible": false
  },
  {
    "spot-id": 665,
    "region-id": null,
    "name": "Carenerro Point Break",
    "latitude": 9.34826797,
    "longitude": -82.22883046,
    "visible": false
  },
  {
    "spot-id": 667,
    "region-id": null,
    "name": "Punta Roquitas",
    "latitude": -12.12236911,
    "longitude": -77.04598188,
    "visible": false
  },
  {
    "spot-id": 668,
    "region-id": null,
    "name": "Sorrento",
    "latitude": -38.34676891,
    "longitude": 144.72671986,
    "visible": false
  },
  {
    "spot-id": 670,
    "region-id": null,
    "name": "Sopelana",
    "latitude": 43.38922228,
    "longitude": -2.99478292,
    "visible": false
  },
  {
    "spot-id": 671,
    "region-id": null,
    "name": "Rye Ocean Beach",
    "latitude": -38.40712816,
    "longitude": 144.8068428,
    "visible": false
  },
  {
    "spot-id": 672,
    "region-id": null,
    "name": "Mousehole Reef",
    "latitude": 50.08122064,
    "longitude": -5.53787649,
    "visible": false
  },
  {
    "spot-id": 674,
    "region-id": 18,
    "name": "Buccaneer",
    "latitude": 28.1780728,
    "longitude": -80.58977008,
    "visible": true
  },
  {
    "spot-id": 676,
    "region-id": null,
    "name": "Traffic Point",
    "latitude": 35.39623932,
    "longitude": -3.00568342,
    "visible": false
  },
  {
    "spot-id": 677,
    "region-id": null,
    "name": "Praia Morrungulo",
    "latitude": -23.23219738,
    "longitude": 35.49448729,
    "visible": false
  },
  {
    "spot-id": 680,
    "region-id": null,
    "name": "Chelsea's Point",
    "latitude": 15.23618965,
    "longitude": 120.01095772,
    "visible": false
  },
  {
    "spot-id": 682,
    "region-id": null,
    "name": "Vivier",
    "latitude": 14.740609,
    "longitude": -17.52161086,
    "visible": false
  },
  {
    "spot-id": 685,
    "region-id": null,
    "name": "Gravat\u00c3\u00a1",
    "latitude": -26.83173002,
    "longitude": -48.62342834,
    "visible": false
  },
  {
    "spot-id": 688,
    "region-id": null,
    "name": "Turtle Bay",
    "latitude": 21.70428642,
    "longitude": -157.99967408,
    "visible": false
  },
  {
    "spot-id": 691,
    "region-id": null,
    "name": "Stimpy's",
    "latitude": 9.84369085,
    "longitude": 126.15738988,
    "visible": false
  },
  {
    "spot-id": 692,
    "region-id": null,
    "name": "Nonura",
    "latitude": -5.84177254,
    "longitude": -81.10750079,
    "visible": false
  },
  {
    "spot-id": 694,
    "region-id": null,
    "name": "Ohama Beach",
    "latitude": 34.65368579,
    "longitude": 138.9200592,
    "visible": false
  },
  {
    "spot-id": 695,
    "region-id": 49,
    "name": "Latigo Point",
    "latitude": 34.02616579,
    "longitude": -118.75446081,
    "visible": false
  },
  {
    "spot-id": 697,
    "region-id": null,
    "name": "Tam Oshanter Point",
    "latitude": -40.99525317,
    "longitude": 147.07024097,
    "visible": false
  },
  {
    "spot-id": 698,
    "region-id": null,
    "name": "Turtles",
    "latitude": 21.27393866,
    "longitude": -157.71985531,
    "visible": false
  },
  {
    "spot-id": 700,
    "region-id": null,
    "name": "La Tortue (Turtle reef)",
    "latitude": -21.15523904,
    "longitude": 55.28126389,
    "visible": false
  },
  {
    "spot-id": 702,
    "region-id": null,
    "name": "Aramoana",
    "latitude": -45.77611408,
    "longitude": 170.7105875,
    "visible": false
  },
  {
    "spot-id": 704,
    "region-id": null,
    "name": "Leba",
    "latitude": 54.76702804,
    "longitude": 17.54413605,
    "visible": false
  },
  {
    "spot-id": 706,
    "region-id": null,
    "name": "Marhina",
    "latitude": 30.41224574,
    "longitude": -9.60485771,
    "visible": false
  },
  {
    "spot-id": 707,
    "region-id": null,
    "name": "Salinas",
    "latitude": 28.07402508,
    "longitude": -14.45697784,
    "visible": false
  },
  {
    "spot-id": 708,
    "region-id": null,
    "name": "Mogadishu Beach",
    "latitude": 2.0368159,
    "longitude": 45.36731243,
    "visible": false
  },
  {
    "spot-id": 709,
    "region-id": 50,
    "name": "Ventura Point",
    "latitude": 34.2734071,
    "longitude": -119.30474281,
    "visible": false
  },
  {
    "spot-id": 711,
    "region-id": 75,
    "name": "Sand Point",
    "latitude": 48.12783746,
    "longitude": -124.71449018,
    "visible": false
  },
  {
    "spot-id": 712,
    "region-id": null,
    "name": "Sharkies",
    "latitude": -28.09140414,
    "longitude": 153.46060663,
    "visible": false
  },
  {
    "spot-id": 715,
    "region-id": null,
    "name": "Mahe",
    "latitude": -4.7256207,
    "longitude": 55.50567627,
    "visible": false
  },
  {
    "spot-id": 716,
    "region-id": null,
    "name": "Praia do Silveira",
    "latitude": -28.03906914,
    "longitude": -48.60686302,
    "visible": false
  },
  {
    "spot-id": 717,
    "region-id": null,
    "name": "Suicides",
    "latitude": 12.18288056,
    "longitude": -86.77240833,
    "visible": false
  },
  {
    "spot-id": 718,
    "region-id": null,
    "name": "Pura Vida",
    "latitude": 42.03820175,
    "longitude": 11.91672206,
    "visible": false
  },
  {
    "spot-id": 719,
    "region-id": 74,
    "name": "Damon Point",
    "latitude": 46.93748791,
    "longitude": -124.1340065,
    "visible": false
  },
  {
    "spot-id": 720,
    "region-id": 76,
    "name": "Medewi",
    "latitude": -8.42160232,
    "longitude": 114.80466127,
    "visible": true
  },
  {
    "spot-id": 721,
    "region-id": null,
    "name": "Maraa",
    "latitude": -17.74999457,
    "longitude": -149.58108902,
    "visible": false
  },
  {
    "spot-id": 722,
    "region-id": null,
    "name": "Buffalo Bay (Murpheys)",
    "latitude": -34.08444973,
    "longitude": 22.97564149,
    "visible": false
  },
  {
    "spot-id": 724,
    "region-id": null,
    "name": "Fairhaven",
    "latitude": -38.46958412,
    "longitude": 144.08492088,
    "visible": false
  },
  {
    "spot-id": 725,
    "region-id": null,
    "name": "Jobo's",
    "latitude": 18.51448753,
    "longitude": -67.07741261,
    "visible": false
  },
  {
    "spot-id": 727,
    "region-id": null,
    "name": "Point nth of Al Ashkarah",
    "latitude": 21.95052894,
    "longitude": 59.64580536,
    "visible": false
  },
  {
    "spot-id": 730,
    "region-id": null,
    "name": "Andros (Hora)",
    "latitude": 37.84054659,
    "longitude": 24.93754864,
    "visible": false
  },
  {
    "spot-id": 731,
    "region-id": null,
    "name": "Tingua",
    "latitude": -27.36816579,
    "longitude": -48.53250146,
    "visible": false
  },
  {
    "spot-id": 734,
    "region-id": null,
    "name": "Hout Bay",
    "latitude": -34.04704133,
    "longitude": 18.35442066,
    "visible": false
  },
  {
    "spot-id": 735,
    "region-id": null,
    "name": "Chorefto",
    "latitude": 39.45435404,
    "longitude": 23.12218666,
    "visible": false
  },
  {
    "spot-id": 736,
    "region-id": null,
    "name": "Blue bowls",
    "latitude": 0.23311894,
    "longitude": 73.28681231,
    "visible": false
  },
  {
    "spot-id": 738,
    "region-id": null,
    "name": "Prickly Point",
    "latitude": 11.98911807,
    "longitude": -61.76213264,
    "visible": false
  },
  {
    "spot-id": 739,
    "region-id": null,
    "name": "Sa mesa longa",
    "latitude": 40.04759146,
    "longitude": 8.39879036,
    "visible": false
  },
  {
    "spot-id": 740,
    "region-id": null,
    "name": "Hatchet Bay",
    "latitude": 25.36533646,
    "longitude": -76.48403764,
    "visible": false
  },
  {
    "spot-id": 741,
    "region-id": null,
    "name": "La Bonfil",
    "latitude": 16.74363844,
    "longitude": -99.75864887,
    "visible": false
  },
  {
    "spot-id": 742,
    "region-id": 80,
    "name": "kerewei right",
    "latitude": -9.76081783,
    "longitude": 119.33151495,
    "visible": true
  },
  {
    "spot-id": 743,
    "region-id": null,
    "name": "Bay Break",
    "latitude": 54.27920743,
    "longitude": -8.60589981,
    "visible": false
  },
  {
    "spot-id": 744,
    "region-id": null,
    "name": "Punta Umbria",
    "latitude": 37.20709374,
    "longitude": -7.09048524,
    "visible": false
  },
  {
    "spot-id": 745,
    "region-id": null,
    "name": "Praia CDS",
    "latitude": 38.64461228,
    "longitude": -9.24244165,
    "visible": false
  },
  {
    "spot-id": 746,
    "region-id": null,
    "name": "Cost\u00c3\u00a3o da Pinheira",
    "latitude": -27.88107688,
    "longitude": -48.58654261,
    "visible": false
  },
  {
    "spot-id": 747,
    "region-id": null,
    "name": "Nagahama Reef",
    "latitude": 30.59239309,
    "longitude": 130.9527605,
    "visible": false
  },
  {
    "spot-id": 748,
    "region-id": null,
    "name": "Kiama Bombie",
    "latitude": -34.76869146,
    "longitude": 150.85601807,
    "visible": false
  },
  {
    "spot-id": 749,
    "region-id": null,
    "name": "iliria",
    "latitude": 41.30050773,
    "longitude": 19.49189186,
    "visible": false
  },
  {
    "spot-id": 751,
    "region-id": null,
    "name": "Selis",
    "latitude": -33.81965963,
    "longitude": 18.47351074,
    "visible": false
  },
  {
    "spot-id": 752,
    "region-id": null,
    "name": "San lorenzo - san pedro",
    "latitude": 43.54492431,
    "longitude": -5.66008329,
    "visible": false
  },
  {
    "spot-id": 753,
    "region-id": null,
    "name": "Luna Roja",
    "latitude": -38.17347907,
    "longitude": -57.63929844,
    "visible": false
  },
  {
    "spot-id": 754,
    "region-id": null,
    "name": "Ouakam",
    "latitude": 14.71384317,
    "longitude": -17.49174714,
    "visible": false
  },
  {
    "spot-id": 755,
    "region-id": null,
    "name": "Polzeath",
    "latitude": 50.57508835,
    "longitude": -4.91676807,
    "visible": false
  },
  {
    "spot-id": 757,
    "region-id": null,
    "name": "Bartletts Beach",
    "latitude": -31.59415976,
    "longitude": 152.84259483,
    "visible": false
  },
  {
    "spot-id": 758,
    "region-id": null,
    "name": "Lom\u00c3\u00a9 Rivage",
    "latitude": 6.11759964,
    "longitude": 1.21310815,
    "visible": false
  },
  {
    "spot-id": 759,
    "region-id": null,
    "name": "Sylt - Westerland",
    "latitude": 54.91254055,
    "longitude": 8.29914093,
    "visible": false
  },
  {
    "spot-id": 762,
    "region-id": null,
    "name": "Los pinos",
    "latitude": 23.20892347,
    "longitude": -106.42831028,
    "visible": false
  },
  {
    "spot-id": 763,
    "region-id": 22,
    "name": "Fenway",
    "latitude": 41.32834147,
    "longitude": -71.76179945,
    "visible": true
  },
  {
    "spot-id": 764,
    "region-id": 70,
    "name": "Brookings Sporthaven Beach",
    "latitude": 42.04387492,
    "longitude": -124.26953316,
    "visible": false
  },
  {
    "spot-id": 765,
    "region-id": null,
    "name": "Bulli",
    "latitude": -34.34021152,
    "longitude": 150.92524052,
    "visible": false
  },
  {
    "spot-id": 766,
    "region-id": null,
    "name": "Clogherhead",
    "latitude": 53.85817131,
    "longitude": -6.24220848,
    "visible": false
  },
  {
    "spot-id": 768,
    "region-id": null,
    "name": "Panic Point",
    "latitude": -4.26368998,
    "longitude": -81.24681473,
    "visible": false
  },
  {
    "spot-id": 769,
    "region-id": null,
    "name": "Cowries",
    "latitude": -34.57778638,
    "longitude": 150.87588787,
    "visible": false
  },
  {
    "spot-id": 771,
    "region-id": null,
    "name": "Juquehy",
    "latitude": -23.76806475,
    "longitude": -45.73814392,
    "visible": false
  },
  {
    "spot-id": 773,
    "region-id": null,
    "name": "Olas Verdes",
    "latitude": -2.64419105,
    "longitude": -80.40663958,
    "visible": false
  },
  {
    "spot-id": 776,
    "region-id": null,
    "name": "Grand M\u00c3\u00a8re",
    "latitude": 17.89036669,
    "longitude": -62.8092885,
    "visible": false
  },
  {
    "spot-id": 777,
    "region-id": 3,
    "name": "Great Egg Harbor Inlet (Longport)",
    "latitude": 39.30375911,
    "longitude": -74.5383203,
    "visible": true
  },
  {
    "spot-id": 778,
    "region-id": null,
    "name": "Llangennith",
    "latitude": 51.5922157,
    "longitude": -4.29668427,
    "visible": false
  },
  {
    "spot-id": 779,
    "region-id": null,
    "name": "La Boya",
    "latitude": 18.43295767,
    "longitude": -69.63170707,
    "visible": false
  },
  {
    "spot-id": 780,
    "region-id": null,
    "name": "Waikiki",
    "latitude": -12.12960683,
    "longitude": -77.03749537,
    "visible": false
  },
  {
    "spot-id": 781,
    "region-id": null,
    "name": "Kihei Cove",
    "latitude": 20.72775935,
    "longitude": -156.45039797,
    "visible": false
  },
  {
    "spot-id": 783,
    "region-id": null,
    "name": "Boobies",
    "latitude": 50.53612614,
    "longitude": -5.02418518,
    "visible": false
  },
  {
    "spot-id": 785,
    "region-id": null,
    "name": "Burgau",
    "latitude": 37.07018517,
    "longitude": -8.77616644,
    "visible": false
  },
  {
    "spot-id": 787,
    "region-id": null,
    "name": "Smiths Point - Left",
    "latitude": -33.65938867,
    "longitude": 115.01054764,
    "visible": false
  },
  {
    "spot-id": 788,
    "region-id": null,
    "name": "Tartane",
    "latitude": 14.77085732,
    "longitude": -60.89986682,
    "visible": false
  },
  {
    "spot-id": 789,
    "region-id": null,
    "name": "Crystals",
    "latitude": -32.26799384,
    "longitude": 115.69128927,
    "visible": false
  },
  {
    "spot-id": 790,
    "region-id": 5,
    "name": "The Box",
    "latitude": 40.13036138,
    "longitude": -74.02729511,
    "visible": true
  },
  {
    "spot-id": 792,
    "region-id": null,
    "name": "Toads",
    "latitude": -34.06237242,
    "longitude": 151.15652069,
    "visible": false
  },
  {
    "spot-id": 793,
    "region-id": null,
    "name": "Yanchep - doggies shorey",
    "latitude": -31.55766614,
    "longitude": 115.62802434,
    "visible": false
  },
  {
    "spot-id": 795,
    "region-id": null,
    "name": "Blacks",
    "latitude": -35.58745701,
    "longitude": 150.35038948,
    "visible": false
  },
  {
    "spot-id": 796,
    "region-id": null,
    "name": "El Bajo",
    "latitude": 0.99357989,
    "longitude": -79.66068506,
    "visible": false
  },
  {
    "spot-id": 797,
    "region-id": null,
    "name": "Caravelle",
    "latitude": 16.21578309,
    "longitude": -61.39466867,
    "visible": false
  },
  {
    "spot-id": 798,
    "region-id": null,
    "name": "Tay street",
    "latitude": -37.6470972,
    "longitude": 176.19967461,
    "visible": false
  },
  {
    "spot-id": 800,
    "region-id": null,
    "name": "Otur",
    "latitude": 43.55355575,
    "longitude": -6.59741879,
    "visible": false
  },
  {
    "spot-id": 801,
    "region-id": null,
    "name": "Turtle Beach",
    "latitude": 4.85076343,
    "longitude": -2.23374367,
    "visible": false
  },
  {
    "spot-id": 802,
    "region-id": null,
    "name": "Pengoes",
    "latitude": -32.30434352,
    "longitude": 115.68852693,
    "visible": false
  },
  {
    "spot-id": 804,
    "region-id": null,
    "name": "Honls",
    "latitude": 19.6284204,
    "longitude": -155.98925114,
    "visible": false
  },
  {
    "spot-id": 805,
    "region-id": null,
    "name": "Seaton",
    "latitude": 50.36421662,
    "longitude": -4.38749313,
    "visible": false
  },
  {
    "spot-id": 806,
    "region-id": null,
    "name": "Clifton Beach",
    "latitude": -42.99363038,
    "longitude": 147.52578735,
    "visible": false
  },
  {
    "spot-id": 807,
    "region-id": null,
    "name": "The Meadows",
    "latitude": 44.05779566,
    "longitude": -64.637224,
    "visible": false
  },
  {
    "spot-id": 808,
    "region-id": 55,
    "name": "Pismo Beach",
    "latitude": 35.13826516,
    "longitude": -120.64468861,
    "visible": false
  },
  {
    "spot-id": 809,
    "region-id": null,
    "name": "Avatoru Pass, Rangiroa",
    "latitude": -14.93629501,
    "longitude": -147.71006584,
    "visible": false
  },
  {
    "spot-id": 810,
    "region-id": null,
    "name": "Lagoa",
    "latitude": 39.0589417,
    "longitude": -27.97568679,
    "visible": false
  },
  {
    "spot-id": 811,
    "region-id": 7,
    "name": "Hatteras Light House",
    "latitude": 35.22840853,
    "longitude": -75.52752972,
    "visible": true
  },
  {
    "spot-id": 813,
    "region-id": null,
    "name": "La Bomba",
    "latitude": 18.45696681,
    "longitude": -66.0636878,
    "visible": false
  },
  {
    "spot-id": 815,
    "region-id": null,
    "name": "Le Poux",
    "latitude": 49.47018784,
    "longitude": -1.84145451,
    "visible": false
  },
  {
    "spot-id": 816,
    "region-id": null,
    "name": "Sakawa Rivermouth",
    "latitude": 35.25984747,
    "longitude": 139.18364525,
    "visible": false
  },
  {
    "spot-id": 817,
    "region-id": null,
    "name": "Cala Finestrat",
    "latitude": 38.52391176,
    "longitude": -0.16676903,
    "visible": false
  },
  {
    "spot-id": 819,
    "region-id": null,
    "name": "Ribeira da Janela",
    "latitude": 32.85102018,
    "longitude": -17.15011418,
    "visible": false
  },
  {
    "spot-id": 820,
    "region-id": null,
    "name": "Saber Reef",
    "latitude": -47.18749595,
    "longitude": 167.79436111,
    "visible": false
  },
  {
    "spot-id": 821,
    "region-id": null,
    "name": "Luz",
    "latitude": 37.0860975,
    "longitude": -8.72550488,
    "visible": false
  },
  {
    "spot-id": 823,
    "region-id": null,
    "name": "Playa norte",
    "latitude": 19.22023437,
    "longitude": -96.15663528,
    "visible": false
  },
  {
    "spot-id": 826,
    "region-id": null,
    "name": "Hell",
    "latitude": -32.70008766,
    "longitude": 17.96563078,
    "visible": false
  },
  {
    "spot-id": 827,
    "region-id": null,
    "name": "South Haven",
    "latitude": 42.40013628,
    "longitude": -86.2852478,
    "visible": false
  },
  {
    "spot-id": 830,
    "region-id": null,
    "name": "Blackfellows Point",
    "latitude": -36.08280047,
    "longitude": 150.13424635,
    "visible": false
  },
  {
    "spot-id": 831,
    "region-id": null,
    "name": "Breakwater",
    "latitude": 50.21559666,
    "longitude": -5.47545679,
    "visible": false
  },
  {
    "spot-id": 833,
    "region-id": null,
    "name": "Papa Hanga Roa",
    "latitude": -27.14781312,
    "longitude": -109.43233609,
    "visible": false
  },
  {
    "spot-id": 834,
    "region-id": 21,
    "name": "Cisco Beach (Nantucket Island)",
    "latitude": 41.25238716,
    "longitude": -70.1567173,
    "visible": true
  },
  {
    "spot-id": 835,
    "region-id": null,
    "name": "Baby Plage",
    "latitude": 46.20879067,
    "longitude": 6.163432,
    "visible": false
  },
  {
    "spot-id": 836,
    "region-id": null,
    "name": "Nakayama - Center",
    "latitude": 30.52454858,
    "longitude": 130.98694995,
    "visible": false
  },
  {
    "spot-id": 838,
    "region-id": null,
    "name": "Petten - ET",
    "latitude": 52.76221005,
    "longitude": 4.65240955,
    "visible": false
  },
  {
    "spot-id": 839,
    "region-id": null,
    "name": "Wilderness",
    "latitude": 18.12416667,
    "longitude": -63.02722222,
    "visible": false
  },
  {
    "spot-id": 840,
    "region-id": null,
    "name": "Pali Kaholo",
    "latitude": 20.76782136,
    "longitude": -156.98664121,
    "visible": false
  },
  {
    "spot-id": 841,
    "region-id": null,
    "name": "Oostende 't Ooster",
    "latitude": 51.23935132,
    "longitude": 2.92888641,
    "visible": false
  },
  {
    "spot-id": 842,
    "region-id": null,
    "name": "luzas",
    "latitude": -33.78237547,
    "longitude": 151.29547656,
    "visible": false
  },
  {
    "spot-id": 843,
    "region-id": null,
    "name": "Tama Reef",
    "latitude": -33.90083593,
    "longitude": 151.27124012,
    "visible": false
  },
  {
    "spot-id": 845,
    "region-id": null,
    "name": "Teahupoo",
    "latitude": -17.86672884,
    "longitude": -149.2538166,
    "visible": false
  },
  {
    "spot-id": 846,
    "region-id": null,
    "name": "Infinities",
    "latitude": -38.78272536,
    "longitude": 143.65611076,
    "visible": false
  },
  {
    "spot-id": 848,
    "region-id": null,
    "name": "Point Plomer",
    "latitude": -31.31257707,
    "longitude": 152.97163725,
    "visible": false
  },
  {
    "spot-id": 849,
    "region-id": null,
    "name": "Praia da Sereia",
    "latitude": 41.11686597,
    "longitude": -8.66615295,
    "visible": false
  },
  {
    "spot-id": 852,
    "region-id": null,
    "name": "Somerton",
    "latitude": -35.00248049,
    "longitude": 138.5102284,
    "visible": false
  },
  {
    "spot-id": 856,
    "region-id": null,
    "name": "Old Woman Ledge",
    "latitude": -26.61469712,
    "longitude": 153.11430931,
    "visible": false
  },
  {
    "spot-id": 859,
    "region-id": null,
    "name": "Vai Uri",
    "latitude": -27.1400608,
    "longitude": -109.42874193,
    "visible": false
  },
  {
    "spot-id": 861,
    "region-id": null,
    "name": "Thirroul Reef",
    "latitude": -34.31382356,
    "longitude": 150.93154639,
    "visible": false
  },
  {
    "spot-id": 863,
    "region-id": null,
    "name": "Chalupy",
    "latitude": 54.76900863,
    "longitude": 18.48449707,
    "visible": false
  },
  {
    "spot-id": 866,
    "region-id": null,
    "name": "Nakayama - Minato",
    "latitude": 30.52909548,
    "longitude": 130.99235728,
    "visible": false
  },
  {
    "spot-id": 867,
    "region-id": null,
    "name": "Tarifa",
    "latitude": 36.01265803,
    "longitude": -5.60319901,
    "visible": false
  },
  {
    "spot-id": 868,
    "region-id": null,
    "name": "Riccione",
    "latitude": 44.00170568,
    "longitude": 12.66208649,
    "visible": false
  },
  {
    "spot-id": 869,
    "region-id": null,
    "name": "Punta Abreojos",
    "latitude": 26.70927345,
    "longitude": -113.57597351,
    "visible": false
  },
  {
    "spot-id": 871,
    "region-id": null,
    "name": "Ain El Turk",
    "latitude": 35.73777232,
    "longitude": -0.73590159,
    "visible": false
  },
  {
    "spot-id": 874,
    "region-id": null,
    "name": "frainslake sands",
    "latitude": 51.6398989,
    "longitude": -5.06868661,
    "visible": false
  },
  {
    "spot-id": 875,
    "region-id": null,
    "name": "Jaws",
    "latitude": 20.93861,
    "longitude": -156.26083,
    "visible": false
  },
  {
    "spot-id": 876,
    "region-id": null,
    "name": "Cardiel",
    "latitude": -37.97633753,
    "longitude": -57.54134417,
    "visible": false
  },
  {
    "spot-id": 878,
    "region-id": null,
    "name": "Pissouri",
    "latitude": 34.64824905,
    "longitude": 32.71857262,
    "visible": false
  },
  {
    "spot-id": 879,
    "region-id": null,
    "name": "Razo",
    "latitude": 43.29123241,
    "longitude": -8.702631,
    "visible": false
  },
  {
    "spot-id": 880,
    "region-id": null,
    "name": "Barravento",
    "latitude": -13.00976362,
    "longitude": -38.52697134,
    "visible": false
  },
  {
    "spot-id": 882,
    "region-id": 34,
    "name": "Hennemans",
    "latitude": 32.80758433,
    "longitude": -117.26994395,
    "visible": false
  },
  {
    "spot-id": 883,
    "region-id": null,
    "name": "the Dee bore",
    "latitude": 53.20068585,
    "longitude": -2.98862457,
    "visible": false
  },
  {
    "spot-id": 884,
    "region-id": null,
    "name": "Maghermore",
    "latitude": 52.95194756,
    "longitude": -6.01329803,
    "visible": false
  },
  {
    "spot-id": 887,
    "region-id": null,
    "name": "Killer",
    "latitude": 30.54757085,
    "longitude": -9.74255562,
    "visible": false
  },
  {
    "spot-id": 888,
    "region-id": null,
    "name": "Kitchen windows",
    "latitude": -34.05831269,
    "longitude": 24.92712021,
    "visible": false
  },
  {
    "spot-id": 889,
    "region-id": null,
    "name": "El Loa",
    "latitude": -21.43058451,
    "longitude": -70.05988955,
    "visible": false
  },
  {
    "spot-id": 890,
    "region-id": null,
    "name": "Nosara  Beach",
    "latitude": 9.98281969,
    "longitude": -85.69561243,
    "visible": false
  },
  {
    "spot-id": 891,
    "region-id": null,
    "name": "La Mine",
    "latitude": 46.41458402,
    "longitude": -1.62895918,
    "visible": false
  },
  {
    "spot-id": 896,
    "region-id": 76,
    "name": "Ewan's Left",
    "latitude": -8.80736478,
    "longitude": 115.23490369,
    "visible": true
  },
  {
    "spot-id": 897,
    "region-id": 75,
    "name": "Twins",
    "latitude": 48.16553799,
    "longitude": -123.95034492,
    "visible": false
  },
  {
    "spot-id": 900,
    "region-id": null,
    "name": "Pe\u00c3\u00b1arrubia",
    "latitude": 43.55190732,
    "longitude": -5.62379837,
    "visible": false
  },
  {
    "spot-id": 902,
    "region-id": null,
    "name": "Strandfontein beachbreak",
    "latitude": -31.75032107,
    "longitude": 18.22421551,
    "visible": false
  },
  {
    "spot-id": 905,
    "region-id": null,
    "name": "Playa blanca",
    "latitude": 28.47450093,
    "longitude": -13.86579752,
    "visible": false
  },
  {
    "spot-id": 906,
    "region-id": null,
    "name": "Woodside Beach",
    "latitude": -38.55138744,
    "longitude": 146.96411133,
    "visible": false
  },
  {
    "spot-id": 909,
    "region-id": null,
    "name": "Playa Salvaje",
    "latitude": 43.38437255,
    "longitude": -3.00669193,
    "visible": false
  },
  {
    "spot-id": 910,
    "region-id": null,
    "name": "Cap Skirring",
    "latitude": 12.3629751,
    "longitude": -16.73732758,
    "visible": false
  },
  {
    "spot-id": 913,
    "region-id": 33,
    "name": "Pianos",
    "latitude": 32.70692683,
    "longitude": -117.25578323,
    "visible": false
  },
  {
    "spot-id": 914,
    "region-id": null,
    "name": "Pebbles Shorey",
    "latitude": -34.13653089,
    "longitude": 18.32588196,
    "visible": false
  },
  {
    "spot-id": 916,
    "region-id": 6,
    "name": "Ocean City",
    "latitude": 38.40383243,
    "longitude": -75.07266998,
    "visible": true
  },
  {
    "spot-id": 917,
    "region-id": null,
    "name": "Pembrey Beach",
    "latitude": 51.68291752,
    "longitude": -4.33712393,
    "visible": false
  },
  {
    "spot-id": 918,
    "region-id": null,
    "name": "Ollies point",
    "latitude": 51.21865163,
    "longitude": 2.87465215,
    "visible": false
  },
  {
    "spot-id": 919,
    "region-id": null,
    "name": "Howrah Beach",
    "latitude": -42.88132209,
    "longitude": 147.39474535,
    "visible": false
  },
  {
    "spot-id": 921,
    "region-id": null,
    "name": "Intendance",
    "latitude": -4.78600853,
    "longitude": 55.49790859,
    "visible": false
  },
  {
    "spot-id": 923,
    "region-id": null,
    "name": "Kingsley Beach",
    "latitude": -32.78792394,
    "longitude": 152.10401773,
    "visible": false
  },
  {
    "spot-id": 924,
    "region-id": null,
    "name": "Watergate Bay",
    "latitude": 50.4455901,
    "longitude": -5.04341125,
    "visible": false
  },
  {
    "spot-id": 925,
    "region-id": null,
    "name": "Venus Beach",
    "latitude": 34.77940776,
    "longitude": 32.40267277,
    "visible": false
  },
  {
    "spot-id": 927,
    "region-id": null,
    "name": "Puerto Vallarta",
    "latitude": 20.73813455,
    "longitude": -105.40283203,
    "visible": false
  },
  {
    "spot-id": 928,
    "region-id": 37,
    "name": "Middles",
    "latitude": 33.60241355,
    "longitude": -117.91306257,
    "visible": false
  },
  {
    "spot-id": 929,
    "region-id": null,
    "name": "The Pines",
    "latitude": -35.55582267,
    "longitude": 138.62606764,
    "visible": false
  },
  {
    "spot-id": 930,
    "region-id": null,
    "name": "Adria",
    "latitude": 42.83333,
    "longitude": 12.83333,
    "visible": false
  },
  {
    "spot-id": 931,
    "region-id": null,
    "name": "Bilgah beach",
    "latitude": 40.58130499,
    "longitude": 50.06633577,
    "visible": false
  },
  {
    "spot-id": 932,
    "region-id": null,
    "name": "Virgin Point",
    "latitude": -34.18709786,
    "longitude": 18.81786346,
    "visible": false
  },
  {
    "spot-id": 933,
    "region-id": null,
    "name": "Lonely Left",
    "latitude": 4.01683256,
    "longitude": 9.10287023,
    "visible": false
  },
  {
    "spot-id": 934,
    "region-id": null,
    "name": "Croyde",
    "latitude": 51.12860298,
    "longitude": -4.24411297,
    "visible": false
  },
  {
    "spot-id": 938,
    "region-id": 6,
    "name": "48th Street (Ocean City)",
    "latitude": 38.37323043,
    "longitude": -75.06695151,
    "visible": true
  },
  {
    "spot-id": 940,
    "region-id": null,
    "name": "Tortuga - Andora (Liguria)",
    "latitude": 43.95020018,
    "longitude": 8.15316439,
    "visible": false
  },
  {
    "spot-id": 942,
    "region-id": null,
    "name": "Missingham Bridge",
    "latitude": -28.869274,
    "longitude": 153.57858896,
    "visible": false
  },
  {
    "spot-id": 945,
    "region-id": null,
    "name": "Kizaki beach",
    "latitude": 31.83256715,
    "longitude": 131.45300388,
    "visible": false
  },
  {
    "spot-id": 946,
    "region-id": null,
    "name": "Murtinheira",
    "latitude": 40.20644308,
    "longitude": -8.90047073,
    "visible": false
  },